{
"type": "FeatureCollection",
"name": "locs2020_rw",
"crs": { "type": "name", "properties": { "name": "urn:ogc:def:crs:OGC:1.3:CRS84" } },
"features": [
{ "type": "Feature", "properties": { "X.1": "17", "X": "19", "num": "19", "text": "Ethiopia, Mieso. Ignacio de la Torre with Universidad Autonoma de Barcelona; Centro Nacional de Investigación sobre la Evolución Humana, Spain.", "loc": "Ethiopia, Mieso", "address": "mieso, ethiopia", "CONTINENT": "Africa", "map_num": 1 }, "geometry": { "type": "Point", "coordinates": [ 40.7538671, 9.2355505 ] } },
{ "type": "Feature", "properties": { "X.1": "18", "X": "20", "num": "20", "text": "Mali. Segou Project: Sorotomo and the Dodugu (AD 1000–1700). Kevin MacDonald and Nicholas Gestrich, with Malian Institut des Sciences Humaines.", "loc": "Mali", "address": "mali", "CONTINENT": "Africa", "map_num": 2 }, "geometry": { "type": "Point", "coordinates": [ -3.996166, 17.570692 ] } },
{ "type": "Feature", "properties": { "X.1": "19", "X": "21", "num": "21", "text": "Sudan, Jebel Moya. Michael Brass, Dorian Fuller, Chris Stevens.", "loc": "Sudan, Jebel Moya", "address": "sudan، marsa alam desert, red sea governorate, egypt", "CONTINENT": "Africa", "map_num": 3 }, "geometry": { "type": "Point", "coordinates": [ 33.333, 13.5 ] } },
{ "type": "Feature", "properties": { "X.1": "20", "X": "22", "num": "22", "text": "Sudan, Shalfak. Shalfak Archaeological Mission (SAM). Claudia Naeser and Wolfram Grajetzki.", "loc": "Sudan, Shalfak", "address": "wiki", "CONTINENT": "Africa", "map_num": 4 }, "geometry": { "type": "Point", "coordinates": [ 31.040278, 21.541667 ] } },
{ "type": "Feature", "properties": { "X.1": "21", "X": "23", "num": "23", "text": "Sudan, Mograt Island. Mograt Island Archaeological Mission. Claudia Naeser, with the National Corporation for Antiquities and Museums.", "loc": "Sudan, Mograt Island", "address": "mograt island, sudan", "CONTINENT": "Africa", "map_num": 5 }, "geometry": { "type": "Point", "coordinates": [ 33.25, 19.5 ] } },
{ "type": "Feature", "properties": { "X.1": "22", "X": "24", "num": "24", "text": "Tanzania, Olduvai Gorge. Renata Peters, Ignacio de la Torre (now honorary staff) with University of Wisconsin and Department of Antiquities, Tanzania.", "loc": "Tanzania, Olduvai Gorge", "address": "tanzania", "CONTINENT": "Africa", "map_num": 6 }, "geometry": { "type": "Point", "coordinates": [ 35.3539128, -2.9895714 ] } },
{ "type": "Feature", "properties": { "X.1": "23", "X": "25", "num": "25", "text": "Nigeria, Ile-Ife. Glass and glassmaking in Ile-Ife. Thilo Rehren with Abidemi Babalola, Cambridge University.", "loc": "Nigeria, Ile-Ife", "address": "ife, nigeria", "CONTINENT": "Africa", "map_num": 7 }, "geometry": { "type": "Point", "coordinates": [ 4.5521274, 7.490462 ] } },
{ "type": "Feature", "properties": { "X.1": "24", "X": "26", "num": "26", "text": "Senegal, Kolda region. Upper Casamance Project. Sirio Canós Donnay.", "loc": "Senegal, Kolda region", "address": "kolda region, senegal", "CONTINENT": "Africa", "map_num": 8 }, "geometry": { "type": "Point", "coordinates": [ -14.4723301, 12.949345 ] } },
{ "type": "Feature", "properties": { "X.1": "25", "X": "27", "num": "27", "text": "Senegal, Saint Louis region, Waalo. Oral History, Tumuli, and Archaeology at the Root of Empire (AD 1000 – 1800), Kevin MacDonald and Sirio Canos Donnay (UCL), Ibrahima Thiaw (IFAN-Dakar), Kate Welham (Bournemouth).", "loc": "Senegal, Saint Louis region, Waalo", "address": "saint-louis region, senegal", "CONTINENT": "Africa", "map_num": 9 }, "geometry": { "type": "Point", "coordinates": [ -14.8454619, 16.1949644 ] } },
{ "type": "Feature", "properties": { "X.1": "166", "X": "186", "num": "112", "text": "Egypt and UK. Cairo, Liverpool, Edinburgh. Egypt’s Dispersed Heritage: Views from Egypt. Alice Stevenson, Heba Abd el-Gawad with Mahatat Contemporary Arts, ICOM (Egypt), National Museums Liverpool, and National Museums Scotland (UK).", "loc": "Egypt and UK", "address": "", "CONTINENT": "Africa", "map_num": 10 }, "geometry": { "type": "Point", "coordinates": [ 30.802498, 26.820553 ] } },
{ "type": "Feature", "properties": { "X.1": "167", "X": "187", "num": "113", "text": "Egypt. Origins of Nationhood: a New Chronology for Egyptian State Formation. David Wengrow with Research Laboratory for Archaeology and History of Art, Oxford University.", "loc": "Egypt", "address": "egypt", "CONTINENT": "Africa", "map_num": 11 }, "geometry": { "type": "Point", "coordinates": [ 30.802498, 26.820553 ] } },
{ "type": "Feature", "properties": { "X.1": "168", "X": "188", "num": "114", "text": "Egypt. Decolonising Archaeology: Ethnographies in Egypt. Stephen Quirke with New Hermopolis, Tuna al-Jabal, Minya and Fayoum University.", "loc": "Egypt", "address": "egypt", "CONTINENT": "Africa", "map_num": 12 }, "geometry": { "type": "Point", "coordinates": [ 30.802498, 26.820553 ] } },
{ "type": "Feature", "properties": { "X.1": "171", "X": "191", "num": "117", "text": "Egypt. Mit Rahina Field School: Settlement archaeology in Middle Kingdom Memphis. Ana Tavares with David Jeffreys; Ancient Egypt Research Associates; American Research Centre in Egypt; Ministry of State for Antiquities; Egypt Exploration Society; and Cambridge University.", "loc": "Egypt", "address": "egypt", "CONTINENT": "Africa", "map_num": 14 }, "geometry": { "type": "Point", "coordinates": [ 30.802498, 26.820553 ] } },
{ "type": "Feature", "properties": { "X.1": "26", "X": "29", "num": "29", "text": "Turkmenistan. Ancient Merv Project. Tim Williams and Gai Jorayev with Ministry of Culture of Turkmenistan; ‘Ancient Merv’ State Archaeological Park; Centre for Applied Archaeology; UCL Qatar; Heritage Without Borders; CraTerre-ENSAG, Grenoble; Oxford University; US Embassy in Turkmenistan and CyArk.", "loc": "Turkmenistan", "address": "turkmenistan", "CONTINENT": "Asia", "map_num": 21 }, "geometry": { "type": "Point", "coordinates": [ 59.556278, 38.969719 ] } },
{ "type": "Feature", "properties": { "X.1": "27", "X": "31", "num": "31", "text": "Kazakhstan, Pavlodar. Landscape and metal production at the Late Bronze Age site of Semiyarka. Miljana Radivojevic and Dan Lawrence (Durham University) in collaboration with Pavlodar State University (Victor Merz).", "loc": "Kazakhstan, Pavlodar", "address": "pavlodar 140000, kazakhstan", "CONTINENT": "Asia", "map_num": 22 }, "geometry": { "type": "Point", "coordinates": [ 76.9674023, 52.2873032 ] } },
{ "type": "Feature", "properties": { "X.1": "28", "X": "32", "num": "32", "text": "Kazakhstan, Taldysai. The large-scale production of copper in central Kazakhstan. Miljana Radivojevic in collaboration with the Institute of Archaeology, Almaty (Antonina Ermolaeva).", "loc": "Kazakhstan, Taldysai", "address": "taldysai village 100000, kazakhstan", "CONTINENT": "Asia", "map_num": 23 }, "geometry": { "type": "Point", "coordinates": [ 67.0228517, 48.215854 ] } },
{ "type": "Feature", "properties": { "X.1": "31", "X": "35", "num": "35", "text": "India, Sanchi. Sanchi Survey Project. Julia Shaw with Department of Archaeology, Museums and Archives, Madhya Pradesh, Bhopal; and University of Leeds.", "loc": "India, Sanchi", "address": "sanchi, madhya pradesh 464661, india", "CONTINENT": "Asia", "map_num": 24 }, "geometry": { "type": "Point", "coordinates": [ 77.7418238, 23.4873393 ] } },
{ "type": "Feature", "properties": { "X.1": "32", "X": "36", "num": "36", "text": "India. Religion and ‘Nature’ in Ancient India’. Julia Shaw.", "loc": "India", "address": "india", "CONTINENT": "Asia", "map_num": 25 }, "geometry": { "type": "Point", "coordinates": [ 78.96288, 20.593684 ] } },
{ "type": "Feature", "properties": { "X.1": "33", "X": "41", "num": "41", "text": "China, Liaoning Province. Tachiyingzi. Chris Stevens, Dorian Fuller, with Jilin University, and Hebrew University, Jerusalem (Comparative Pathways to Agriculture).", "loc": "China, Liaoning Province", "address": "liaoning, china", "CONTINENT": "Asia", "map_num": 26 }, "geometry": { "type": "Point", "coordinates": [ 122.5290376, 41.9436543 ] } },
{ "type": "Feature", "properties": { "X.1": "34", "X": "42", "num": "42", "text": "China, Yunnan Province. Haimenkou and Baiyangcun. Chris Stevens, Dorian Fuller, Ling Qin, Rita Dal Martello, Eleanor Kingwell-Banham, with Peking University, and the Institute of Cultural Heritage and Archaeology of Yunnan (Early Rice Project\/Comparative Pathways to Agriculture).", "loc": "China, Yunnan Province", "address": "yunnan, china", "CONTINENT": "Asia", "map_num": 27 }, "geometry": { "type": "Point", "coordinates": [ 101.3431058, 24.4752847 ] } },
{ "type": "Feature", "properties": { "X.1": "35", "X": "44", "num": "44", "text": "China. Xi’an, First Emperor’s Mausoleum. The Making of the Terracotta Army. Andrew Bevan, Janice Li, Thilo Rehren, Patrick Quinn with Museum of Emperor Qin Shihuang’s Mausoleum, Xi’an.", "loc": "China", "address": "china", "CONTINENT": "Asia", "map_num": 28 }, "geometry": { "type": "Point", "coordinates": [ 104.195397, 35.86166 ] } },
{ "type": "Feature", "properties": { "X.1": "36", "X": "45", "num": "45", "text": "China, Gansu Province. Early Glass and Pigments from Majiayuan Cemetery, Gansu Province. Thilo Rehren, Yi- Xian Lin and Ian Freestone with Gansu Provincial Institute of Archaeology.", "loc": "China, Gansu Province", "address": "gansu, china", "CONTINENT": "Asia", "map_num": 29 }, "geometry": { "type": "Point", "coordinates": [ 104.2861116, 35.7518326 ] } },
{ "type": "Feature", "properties": { "X.1": "37", "X": "46", "num": "46", "text": "China. Development of Early White Porcelain in China. Shan Huang and Ian Freestone with the Institute of Archaeology, Chinese Academy of Social Sciences, Beijing.", "loc": "China", "address": "china", "CONTINENT": "Asia", "map_num": 30 }, "geometry": { "type": "Point", "coordinates": [ 104.195397, 35.86166 ] } },
{ "type": "Feature", "properties": { "X.1": "38", "X": "47", "num": "47", "text": "China. Multiple projects. Opium war: digital interpretation of archaeological sites and finds for museum-based presentation. Naval Battle Museum: digital interpretation of archaeological sites and finds for museum-based presentation. Chinese exported fans: digital interpretation of archaeological sites and finds for museum-based presentation. Jia Liu (CAA).", "loc": "China", "address": "china", "CONTINENT": "Asia", "map_num": 31 }, "geometry": { "type": "Point", "coordinates": [ 104.195397, 35.86166 ] } },
{ "type": "Feature", "properties": { "X.1": "39", "X": "48", "num": "48", "text": "China. Corrosion products on Han Dynasty bronzes from The Three Gorges. Ian Freestone with The Three Gorges Museum.", "loc": "China", "address": "china", "CONTINENT": "Asia", "map_num": 32 }, "geometry": { "type": "Point", "coordinates": [ 104.195397, 35.86166 ] } },
{ "type": "Feature", "properties": { "X.1": "40", "X": "49", "num": "49", "text": "China. Manufacture of Chinese Lacquer artefacts from the Ming and Qing Dynasties. Julie Chang, Ian Freestone with the Getty Conservation Institute.", "loc": "China", "address": "china", "CONTINENT": "Asia", "map_num": 33 }, "geometry": { "type": "Point", "coordinates": [ 104.195397, 35.86166 ] } },
{ "type": "Feature", "properties": { "X.1": "41", "X": "50", "num": "50", "text": "China. Composition, technology and origins of Qing Dynasty porcelain enamels. Ian Freestone with Cranfield University.", "loc": "China", "address": "china", "CONTINENT": "Asia", "map_num": 34 }, "geometry": { "type": "Point", "coordinates": [ 104.195397, 35.86166 ] } },
{ "type": "Feature", "properties": { "X.1": "42", "X": "51", "num": "51", "text": "China, Shanxi. Survey and Digital documentation of endangered temple wall paintings. CAA and ICCHA, in partnership with Zhejiang University.", "loc": "China, Shanxi", "address": "shanxi, china", "CONTINENT": "Asia", "map_num": 35 }, "geometry": { "type": "Point", "coordinates": [ 111.8568586, 37.2425649 ] } },
{ "type": "Feature", "properties": { "X.1": "43", "X": "54", "num": "54", "text": "Cambodia, Ta Phrom and Angkor Wat. Cristina Castillo, Dorian Fuller, with Miriam Stark, Roland Fletcher and Alison Carter, University of Sydney (Early Rice Project).", "loc": "Cambodia, Ta Phrom and Angkor Wat", "address": "angkor archaeological park, krong siem reap, cambodia", "CONTINENT": "Asia", "map_num": 36 }, "geometry": { "type": "Point", "coordinates": [ 103.8893041, 13.4347941 ] } },
{ "type": "Feature", "properties": { "X.1": "44", "X": "55", "num": "55", "text": "Thailand, Non Ban Jak and Ban Non Wat. Cristina Castillo, Dorian Fuller, with Charles Higham, Ratchanie Thosarat, University of Otago, and Nigel Chang, James Cook University.", "loc": "Thailand, Non Ban Jak and Ban Non Wat", "address": "non ban, ta khu, pak thong chai district, nakhon ratchasima 30150, thailand", "CONTINENT": "Asia", "map_num": 37 }, "geometry": { "type": "Point", "coordinates": [ 101.90022, 14.7087493 ] } },
{ "type": "Feature", "properties": { "X.1": "45", "X": "56", "num": "56", "text": "Burma. Sri Ksetra, Dorian Fuller, Janice Stargardt, Cambridge University (Early Rice Project).", "loc": "Burma", "address": "myanmar (burma)", "CONTINENT": "Asia", "map_num": 38 }, "geometry": { "type": "Point", "coordinates": [ 95.955974, 21.916221 ] } },
{ "type": "Feature", "properties": { "X.1": "46", "X": "58", "num": "58", "text": "Kingdom of Bhutan. National Inventory. Tim Williams and Andrew Bevan with Department of Culture, Bhutan; National Commission of UNESCO, Bhutan; Cultural Heritage Information Consultants.", "loc": "Kingdom of Bhutan", "address": "bhutan", "CONTINENT": "Asia", "map_num": 39 }, "geometry": { "type": "Point", "coordinates": [ 90.433601, 27.514162 ] } },
{ "type": "Feature", "properties": { "X.1": "129", "X": "144", "num": "70", "text": "Russia, Podsinyushka, near Barnaul. Early Bronze Age site in the Altai Mountains. Miljana Radivojevic with Sergey Grushin (Altai State University).", "loc": "Russia, Podsinyushka, near Barnaul", "address": "barnaul, altai krai, russia", "CONTINENT": "Asia", "map_num": 40 }, "geometry": { "type": "Point", "coordinates": [ 83.7835737, 53.3497499 ] } },
{ "type": "Feature", "properties": { "X.1": "162", "X": "182", "num": "108", "text": "Iran. From Islamic manuscripts to the laboratory. Rahil Alipour and Thilo Rehren.", "loc": "Iran", "address": "iran", "CONTINENT": "Asia", "map_num": 60 }, "geometry": { "type": "Point", "coordinates": [ 53.688046, 32.427908 ] } },
{ "type": "Feature", "properties": { "X.1": "163", "X": "183", "num": "109", "text": "Saudi Arabia. Jubbah Oasis, Nefud Desert. Palaeodeserts Project. Maria Guagnin (Freie Universitat Berlin), Michael Petraglia (Max Plank Institute) and team, with Louise Martin.", "loc": "Saudi Arabia", "address": "saudi arabia", "CONTINENT": "Asia", "map_num": 61 }, "geometry": { "type": "Point", "coordinates": [ 45.079162, 23.885942 ] } },
{ "type": "Feature", "properties": { "X.1": "164", "X": "184", "num": "110", "text": "Oman. Dhofar and multiple locations in southern Oman. ASOM project (Ancient Socioecological Systems in Oman). Joy McCorriston, Mark Mortiz, Ian Hamilton (Ohio State University) and team, with Louise Martin.", "loc": "Oman", "address": "oman", "CONTINENT": "Asia", "map_num": 62 }, "geometry": { "type": "Point", "coordinates": [ 55.975413, 21.4735329 ] } },
{ "type": "Feature", "properties": { "X.1": "165", "X": "185", "num": "111", "text": "United Arab Emirates. Early Islamic Glass from Sir Bani Yas. Ian Freestone and Matt Phelps with St John Simpson, the British Museum.", "loc": "United Arab Emirates", "address": "united arab emirates", "CONTINENT": "Asia", "map_num": 63 }, "geometry": { "type": "Point", "coordinates": [ 53.847818, 23.424076 ] } },
{ "type": "Feature", "properties": { "X.1": "128", "X": "143", "num": "69", "text": "Russia, Muradimovskoe Poselnie, near Ufa. Late Bronze Age site with metallurgical production. Miljana Radivojevic with the Bashkir State Pedagogical University.", "loc": "Russia, Muradimovskoe Poselnie, near Ufa", "address": "ufa, republic of bashkortostan, russia", "CONTINENT": "Europe", "map_num": 127 }, "geometry": { "type": "Point", "coordinates": [ 55.9578555, 54.734791 ] } },
{ "type": "Feature", "properties": { "X.1": "11", "X": "12", "num": "12", "text": "Belize, Lamanai. Conservation, collections management, and access to on-site collections. Elizabeth Graham, David Pendergast and Royal Ontario Museum.", "loc": "Belize, Lamanai", "address": "belize", "CONTINENT": "North America", "map_num": 134 }, "geometry": { "type": "Point", "coordinates": [ -88.6522329, 17.7642074 ] } },
{ "type": "Feature", "properties": { "X.1": "12", "X": "13", "num": "13", "text": "Belize, Ambergris Caye. Continuing artefact analysis, Marco Gonzalez Project. Elizabeth Graham.", "loc": "Belize, Ambergris Caye", "address": "ambergris caye, belize", "CONTINENT": "North America", "map_num": 135 }, "geometry": { "type": "Point", "coordinates": [ -87.9432837, 18.001592 ] } },
{ "type": "Feature", "properties": { "X.1": "13", "X": "14", "num": "14", "text": "Puerto Rico, Utuado. Bateyes de Viví. José R. Oliver.", "loc": "Puerto Rico, Utuado", "address": "utuado, 00641, puerto rico", "CONTINENT": "North America", "map_num": 136 }, "geometry": { "type": "Point", "coordinates": [ -66.7004519, 18.2655095 ] } },
{ "type": "Feature", "properties": { "X.1": "14", "X": "15", "num": "15", "text": "USA, Louisiana. Cane River African Diaspora Archaeology Project: the Pierre Metoyer Plantation. Kevin MacDonald with US National Park Service.", "loc": "USA, Louisiana", "address": "louisiana, usa", "CONTINENT": "North America", "map_num": 137 }, "geometry": { "type": "Point", "coordinates": [ -91.9623327, 30.9842977 ] } },
{ "type": "Feature", "properties": { "X.1": "15", "X": "16", "num": "16", "text": "USA, Anza-Borrego Desert State Park, California. Ceramic Production and Distribution at Late Prehistoric Hunter-Gatherer Seasonal Occupation site CA-SDI-813. Patrick Quinn with San Diego Archaeological Center, California.", "loc": "USA, Anza-Borrego Desert State Park, California", "address": "anza-borrego desert state park, 200 palm canyon dr, borrego springs, ca 92004, usa", "CONTINENT": "North America", "map_num": 138 }, "geometry": { "type": "Point", "coordinates": [ -116.3013266, 33.100492 ] } },
{ "type": "Feature", "properties": { "X.1": "16", "X": "17", "num": "17", "text": "Canada, Ontario. Complex Hunter-Gatherers of the Trent Valley. Excavation of a set of Archaic through Middle Woodland sites. Sue Colledge with Department of Anthropology, Trent University, Ontario.", "loc": "Canada, Ontario", "address": "ontario, canada", "CONTINENT": "North America", "map_num": 139 }, "geometry": { "type": "Point", "coordinates": [ -85.323214, 51.253775 ] } },
{ "type": "Feature", "properties": { "X.1": "49", "X": "61", "num": "61", "text": "Easter Island, Rapa Nui. Landscapes of Construction Project. Sue Hamilton with Universities of Bournemouth, Manchester, Highlands and Islands, Chile Santiago, Hawaii Pacific; Rapa Nui National Parks Authority; Museo Antropológico Padre Sebastián Englert.", "loc": "Easter Island, Rapa Nui", "address": "easter island, valparaíso, chile", "CONTINENT": "Oceania", "map_num": 140 }, "geometry": { "type": "Point", "coordinates": [ -109.3496865, -27.112723 ] } },
{ "type": "Feature", "properties": { "X.1": "50", "X": "62", "num": "62", "text": "New Zealand, Auckland. Interr-ogating Archaeological Data for Climatic Information. Martin Bridge with Auckland University Dendrochronology Laboratory.", "loc": "New Zealand, Auckland", "address": "auckland, new zealand", "CONTINENT": "Oceania", "map_num": 141 }, "geometry": { "type": "Point", "coordinates": [ 174.762488600000012, -36.8483048 ] } },
{ "type": "Feature", "properties": { "X.1": "1", "X": "2", "num": "2", "text": "Peru, Cuzco. Ceramic production and monumental stonework during the emergence and expansion of the Inca State. Bill Sillar with University of North Carolina, Charlotte; Ministerio de Cultura, Cuzco.", "loc": "Peru, Cuzco", "address": "cusco, peru", "CONTINENT": "South America", "map_num": 142 }, "geometry": { "type": "Point", "coordinates": [ -71.9674626, -13.53195 ] } },
{ "type": "Feature", "properties": { "X.1": "2", "X": "3", "num": "3", "text": "Bolivarian Republic of Venezuela, Puerto Ayacucho. Cotúa Island-Orinoco Reflexive Archaeology Project. José R. Oliver (PI), Manuel Arroyo-Kalin with Instituto Venezolano de Investigaciones Científicas – Center of Anthropology.", "loc": "Bolivarian Republic of Venezuela, Puerto Ayacucho", "address": "puerto ayacucho 7101, amazonas, venezuela", "CONTINENT": "South America", "map_num": 143 }, "geometry": { "type": "Point", "coordinates": [ -67.5827744, 5.6614718 ] } },
{ "type": "Feature", "properties": { "X.1": "3", "X": "4", "num": "4", "text": "Peru and Ecuador. Archaeological Survey of the Napo River Basin. British Academy project led by M. Arroyo-Kalin, in partnership with DDC-Loreto.", "loc": "Peru and Ecuador", "address": "ecuador", "CONTINENT": "South America", "map_num": 144 }, "geometry": { "type": "Point", "coordinates": [ -78.183406, -1.831239 ] } },
{ "type": "Feature", "properties": { "X.1": "4", "X": "5", "num": "5", "text": "Brazil, Caxiuanã. Geoarchaeology of Caxiuanã. M. Arroyo-Kalin, in partnership with MPEG.", "loc": "Brazil, Caxiuanã", "address": "caxiuanã national forest, melgaço - pa, 68490-000, brazil", "CONTINENT": "South America", "map_num": 145 }, "geometry": { "type": "Point", "coordinates": [ -51.4347329, -1.7938249 ] } },
{ "type": "Feature", "properties": { "X.1": "5", "X": "6", "num": "6", "text": "Brazil, Alto Solimões, Amazon. Barkcloth from the Brazilian Amazon. Renata Peters with Museu de Arqueologia e Etnologia, Universidade de Sao Paulo.", "loc": "Brazil, Alto Solimões, Amazon", "address": "alto solimões, state of amazonas, brazil", "CONTINENT": "South America", "map_num": 146 }, "geometry": { "type": "Point", "coordinates": [ -69.6691186, -5.3751741 ] } },
{ "type": "Feature", "properties": { "X.1": "7", "X": "8", "num": "8", "text": "Brazil. Ancestral indigenous landscapes in the Upper Negro River. British Academy project led by M. Arroyo-Kalin (IoA), in partnership with UFSCar, MUSA, ISA and MPEG.", "loc": "Brazil", "address": "brazil", "CONTINENT": "South America", "map_num": 147 }, "geometry": { "type": "Point", "coordinates": [ -51.92528, -14.235004 ] } },
{ "type": "Feature", "properties": { "X.1": "8", "X": "9", "num": "9", "text": "Chile, Tierra del Fuego. Geoarchaeology in Tierra del Fuego. M. Arroyo-Kalin (IoA), in partnership with UMAG.", "loc": "Chile, Tierra del Fuego", "address": "tierra del fuego province, magallanes and chilean antarctica, chile", "CONTINENT": "South America", "map_num": 148 }, "geometry": { "type": "Point", "coordinates": [ -69.2972139, -53.8671117 ] } },
{ "type": "Feature", "properties": { "X.1": "9", "X": "10", "num": "10", "text": "Colombia, Middle Caquetá River. Geoarchaeology of the Middle Caquetá River. UCL Research Catalyst project led by M. Arroyo-Kalin (IoA), in partnership with UNAL.", "loc": "Colombia, Middle Caquetá River", "address": "japurá river, state of amazonas, brazil", "CONTINENT": "South America", "map_num": 149 }, "geometry": { "type": "Point", "coordinates": [ -67.0803821, -1.9116208 ] } },
{ "type": "Feature", "properties": { "X.1": "10", "X": "11", "num": "11", "text": "Colombia, Municipality of Puerto Carreño. Archaeological survey in the Colombian Orinoco, northeast Vichada. José R. Oliver (PI) with José Luis Socarrás (Co-PI) and Manuel Arroyo-Kalin with Universidad de Externado and Instituto Colombiano de Antropología e Historia (ICAHN).", "loc": "Colombia, Municipality of Puerto Carreño", "address": "puerto carreño, vichada, colombia", "CONTINENT": "South America", "map_num": 150 }, "geometry": { "type": "Point", "coordinates": [ -67.4825696, 6.1899117 ] } },
{ "type": "Feature", "properties": { "X.1": "6", "X": "7", "num": "7", "text": "Brazil, Olivença, Bahia. The sacred cloaks of the Tupinambá. Renata Peters and representatives from the Tupinambá of Olivença.", "loc": "Brazil, Olivença, Bahia", "address": "olivença, ilhéus - ba, brazil", "CONTINENT": null, "map_num": 151 }, "geometry": { "type": "Point", "coordinates": [ -39.0111417, -14.9503734 ] } },
{ "type": "Feature", "properties": { "X.1": "52", "X": "64", "num": "64", "text": "Fiji, Nukabaluvu. Sharyn Jones with Northern Kentucky University (Early Rice Project).", "loc": "Fiji, Nukabaluvu.", "address": "kentucky, usa", "CONTINENT": null, "map_num": 152 }, "geometry": { "type": "Point", "coordinates": [ 179.32757, -16.807229 ] } }
]
}
