,X,num,text,loc,lon,lat,address
1,2,2,"Peru, Cuzco. Ceramic production and monumental stonework during the emergence and expansion of the Inca State. Bill Sillar with University of North Carolina, Charlotte; Ministerio de Cultura, Cuzco.","Peru, Cuzco",-71.9674626,-13.53195,"cusco, peru"
2,3,3,"Bolivarian Republic of Venezuela, Puerto Ayacucho. Cotúa Island-Orinoco Reflexive Archaeology Project. José R. Oliver (PI), Manuel Arroyo-Kalin with Instituto Venezolano de Investigaciones Científicas – Center of Anthropology.","Bolivarian Republic of Venezuela, Puerto Ayacucho",-67.5827744,5.6614718,"puerto ayacucho 7101, amazonas, venezuela"
3,4,4,"Peru and Ecuador. Archaeological Survey of the Napo River Basin. British Academy project led by M. Arroyo-Kalin, in partnership with DDC-Loreto.",Peru and Ecuador,-78.183406,-1.831239,ecuador
4,5,5,"Brazil, Caxiuanã. Geoarchaeology of Caxiuanã. M. Arroyo-Kalin, in partnership with MPEG.","Brazil, Caxiuanã",-51.4347329,-1.7938249,"caxiuanã national forest, melgaço - pa, 68490-000, brazil"
5,6,6,"Brazil, Alto Solimões, Amazon. Barkcloth from the Brazilian Amazon. Renata Peters with Museu de Arqueologia e Etnologia, Universidade de Sao Paulo.","Brazil, Alto Solimões, Amazon",-69.6691186,-5.3751741,"alto solimões, state of amazonas, brazil"
6,7,7,"Brazil, Olivença, Bahia. The sacred cloaks of the Tupinambá. Renata Peters and representatives from the Tupinambá of Olivença.","Brazil, Olivença, Bahia",-39.0111417,-14.9503734,"olivença, ilhéus - ba, brazil"
7,8,8,"Brazil. Ancestral indigenous landscapes in the Upper Negro River. British Academy project led by M. Arroyo-Kalin (IoA), in partnership with UFSCar, MUSA, ISA and MPEG.",Brazil,-51.92528,-14.235004,brazil
8,9,9,"Chile, Tierra del Fuego. Geoarchaeology in Tierra del Fuego. M. Arroyo-Kalin (IoA), in partnership with UMAG.","Chile, Tierra del Fuego",-69.2972139,-53.8671117,"tierra del fuego province, magallanes and chilean antarctica, chile"
9,10,10,"Colombia, Middle Caquetá River. Geoarchaeology of the Middle Caquetá River. UCL Research Catalyst project led by M. Arroyo-Kalin (IoA), in partnership with UNAL.","Colombia, Middle Caquetá River",-67.0803821,-1.9116208,"japurá river, state of amazonas, brazil"
10,11,11,"Colombia, Municipality of Puerto Carreño. Archaeological survey in the Colombian Orinoco, northeast Vichada. José R. Oliver (PI) with José Luis Socarrás (Co-PI) and Manuel Arroyo-Kalin with Universidad de Externado and Instituto Colombiano de Antropología e Historia (ICAHN).","Colombia, Municipality of Puerto Carreño",-67.4825696,6.1899117,"puerto carreño, vichada, colombia"
11,12,12,"Belize, Lamanai. Conservation, collections management, and access to on-site collections. Elizabeth Graham, David Pendergast and Royal Ontario Museum.","Belize, Lamanai",-88.6522329,17.7642074,belize
12,13,13,"Belize, Ambergris Caye. Continuing artefact analysis, Marco Gonzalez Project. Elizabeth Graham.","Belize, Ambergris Caye",-87.9432837,18.001592,"ambergris caye, belize"
13,14,14,"Puerto Rico, Utuado. Bateyes de Viví. José R. Oliver.","Puerto Rico, Utuado",-66.7004519,18.2655095,"utuado, 00641, puerto rico"
14,15,15,"USA, Louisiana. Cane River African Diaspora Archaeology Project: the Pierre Metoyer Plantation. Kevin MacDonald with US National Park Service.","USA, Louisiana",-91.9623327,30.9842977,"louisiana, usa"
15,16,16,"USA, Anza-Borrego Desert State Park, California. Ceramic Production and Distribution at Late Prehistoric Hunter-Gatherer Seasonal Occupation site CA-SDI-813. Patrick Quinn with San Diego Archaeological Center, California.","USA, Anza-Borrego Desert State Park, California",-116.3013266,33.100492,"anza-borrego desert state park, 200 palm canyon dr, borrego springs, ca 92004, usa"
16,17,17,"Canada, Ontario. Complex Hunter-Gatherers of the Trent Valley. Excavation of a set of Archaic through Middle Woodland sites. Sue Colledge with Department of Anthropology, Trent University, Ontario.","Canada, Ontario",-85.323214,51.253775,"ontario, canada"
17,19,19,"Ethiopia, Mieso. Ignacio de la Torre with Universidad Autonoma de Barcelona; Centro Nacional de Investigación sobre la Evolución Humana, Spain.","Ethiopia, Mieso",40.7538671,9.2355505,"mieso, ethiopia"
18,20,20,"Mali. Segou Project: Sorotomo and the Dodugu (AD 1000–1700). Kevin MacDonald and Nicholas Gestrich, with Malian Institut des Sciences Humaines.",Mali,-3.996166,17.570692,mali
19,21,21,"Sudan, Jebel Moya. Michael Brass, Dorian Fuller, Chris Stevens.","Sudan, Jebel Moya",33.333,13.5,"sudan، marsa alam desert, red sea governorate, egypt"
20,22,22,"Sudan, Shalfak. Shalfak Archaeological Mission (SAM). Claudia Naeser and Wolfram Grajetzki.","Sudan, Shalfak",31.040278,21.541667,wiki
21,23,23,"Sudan, Mograt Island. Mograt Island Archaeological Mission. Claudia Naeser, with the National Corporation for Antiquities and Museums.","Sudan, Mograt Island",33.25,19.5,"mograt island, sudan"
22,24,24,"Tanzania, Olduvai Gorge. Renata Peters, Ignacio de la Torre (now honorary staff) with University of Wisconsin and Department of Antiquities, Tanzania.","Tanzania, Olduvai Gorge",35.3539128,-2.9895714,tanzania
23,25,25,"Nigeria, Ile-Ife. Glass and glassmaking in Ile-Ife. Thilo Rehren with Abidemi Babalola, Cambridge University.","Nigeria, Ile-Ife",4.5521274,7.490462,"ife, nigeria"
24,26,26,"Senegal, Kolda region. Upper Casamance Project. Sirio Canós Donnay.","Senegal, Kolda region",-14.4723301,12.949345,"kolda region, senegal"
25,27,27,"Senegal, Saint Louis region, Waalo. Oral History, Tumuli, and Archaeology at the Root of Empire (AD 1000 – 1800), Kevin MacDonald and Sirio Canos Donnay (UCL), Ibrahima Thiaw (IFAN-Dakar), Kate Welham (Bournemouth).","Senegal, Saint Louis region, Waalo",-14.8454619,16.1949644,"saint-louis region, senegal"
26,29,29,"Turkmenistan. Ancient Merv Project. Tim Williams and Gai Jorayev with Ministry of Culture of Turkmenistan; ‘Ancient Merv’ State Archaeological Park; Centre for Applied Archaeology; UCL Qatar; Heritage Without Borders; CraTerre-ENSAG, Grenoble; Oxford University; US Embassy in Turkmenistan and CyArk.",Turkmenistan,59.556278,38.969719,turkmenistan
27,31,31,"Kazakhstan, Pavlodar. Landscape and metal production at the Late Bronze Age site of Semiyarka. Miljana Radivojevic and Dan Lawrence (Durham University) in collaboration with Pavlodar State University (Victor Merz).","Kazakhstan, Pavlodar",76.9674023,52.2873032,"pavlodar 140000, kazakhstan"
28,32,32,"Kazakhstan, Taldysai. The large-scale production of copper in central Kazakhstan. Miljana Radivojevic in collaboration with the Institute of Archaeology, Almaty (Antonina Ermolaeva).","Kazakhstan, Taldysai",67.0228517,48.215854,"taldysai village 100000, kazakhstan"
29,33,33,"Kazakhstan, Dali & Begash, Semirechye. Metal movement and production along the prehistoric Silk Roads. Miljana Radivojevic in collaboration with Washington University in St Louis (Michael Frachetti).","Kazakhstan, Dali & Begash, Semirechye",68,48,NA
30,34,34,"Multiple locations. Republic of Kazakhstan, Kyrgyz Republic, Republic of Tajikistan, Turkmenistan, Republic of Uzbekistan, and the Xinjiang Uyghur Autonomous Region (Peoples Republic of China). Central Asian Archaeological Landscapes (CAAL). Tim Williams, Gai Jorayev, Rui Pang, Kimberley TeWinkle, Marco Nebbia, Ona Vileikis in collaboration with: International Institute of Central Asian Studies, Samarkand; Northwest University, Xi’an; ICOMOS International Conservation Center, Xi’an; University of York (Louise Cooke).",Multiple locations,NA,NA,
31,35,35,"India, Sanchi. Sanchi Survey Project. Julia Shaw with Department of Archaeology, Museums and Archives, Madhya Pradesh, Bhopal; and University of Leeds.","India, Sanchi",77.7418238,23.4873393,"sanchi, madhya pradesh 464661, india"
32,36,36,India. Religion and ‘Nature’ in Ancient India’. Julia Shaw.,India,78.96288,20.593684,india
33,41,41,"China, Liaoning Province. Tachiyingzi. Chris Stevens, Dorian Fuller, with Jilin University, and Hebrew University, Jerusalem (Comparative Pathways to Agriculture).","China, Liaoning Province",122.5290376,41.9436543,"liaoning, china"
34,42,42,"China, Yunnan Province. Haimenkou and Baiyangcun. Chris Stevens, Dorian Fuller, Ling Qin, Rita Dal Martello, Eleanor Kingwell-Banham, with Peking University, and the Institute of Cultural Heritage and Archaeology of Yunnan (Early Rice Project/Comparative Pathways to Agriculture).","China, Yunnan Province",101.3431058,24.4752847,"yunnan, china"
35,44,44,"China. Xi’an, First Emperor’s Mausoleum. The Making of the Terracotta Army. Andrew Bevan, Janice Li, Thilo Rehren, Patrick Quinn with Museum of Emperor Qin Shihuang’s Mausoleum, Xi’an.",China,104.195397,35.86166,china
36,45,45,"China, Gansu Province. Early Glass and Pigments from Majiayuan Cemetery, Gansu Province. Thilo Rehren, Yi- Xian Lin and Ian Freestone with Gansu Provincial Institute of Archaeology.","China, Gansu Province",104.2861116,35.7518326,"gansu, china"
37,46,46,"China. Development of Early White Porcelain in China. Shan Huang and Ian Freestone with the Institute of Archaeology, Chinese Academy of Social Sciences, Beijing.",China,104.195397,35.86166,china
38,47,47,China. Multiple projects. Opium war: digital interpretation of archaeological sites and finds for museum-based presentation. Naval Battle Museum: digital interpretation of archaeological sites and finds for museum-based presentation. Chinese exported fans: digital interpretation of archaeological sites and finds for museum-based presentation. Jia Liu (CAA).,China,104.195397,35.86166,china
39,48,48,China. Corrosion products on Han Dynasty bronzes from The Three Gorges. Ian Freestone with The Three Gorges Museum.,China,104.195397,35.86166,china
40,49,49,"China. Manufacture of Chinese Lacquer artefacts from the Ming and Qing Dynasties. Julie Chang, Ian Freestone with the Getty Conservation Institute.",China,104.195397,35.86166,china
41,50,50,"China. Composition, technology and origins of Qing Dynasty porcelain enamels. Ian Freestone with Cranfield University.",China,104.195397,35.86166,china
42,51,51,"China, Shanxi. Survey and Digital documentation of endangered temple wall paintings. CAA and ICCHA, in partnership with Zhejiang University.","China, Shanxi",111.8568586,37.2425649,"shanxi, china"
43,54,54,"Cambodia, Ta Phrom and Angkor Wat. Cristina Castillo, Dorian Fuller, with Miriam Stark, Roland Fletcher and Alison Carter, University of Sydney (Early Rice Project).","Cambodia, Ta Phrom and Angkor Wat",103.8893041,13.4347941,"angkor archaeological park, krong siem reap, cambodia"
44,55,55,"Thailand, Non Ban Jak and Ban Non Wat. Cristina Castillo, Dorian Fuller, with Charles Higham, Ratchanie Thosarat, University of Otago, and Nigel Chang, James Cook University.","Thailand, Non Ban Jak and Ban Non Wat",101.90022,14.7087493,"non ban, ta khu, pak thong chai district, nakhon ratchasima 30150, thailand"
45,56,56,"Burma. Sri Ksetra, Dorian Fuller, Janice Stargardt, Cambridge University (Early Rice Project).",Burma,95.955974,21.916221,myanmar (burma)
46,58,58,"Kingdom of Bhutan. National Inventory. Tim Williams and Andrew Bevan with Department of Culture, Bhutan; National Commission of UNESCO, Bhutan; Cultural Heritage Information Consultants.",Kingdom of Bhutan,90.433601,27.514162,bhutan
47,59,59,"Numerous countries. UNESCO Serial Transnational World Heritage Nominations of the Silk Roads Project. Tim Williams and Gai Jorayev with active State Party partners: Afghanistan, People’s Republic of China, Republic of India, Islamic Republic of Iran, Japan, Republic of Kazakhstan, Republic of Korea, Kyrgyz Republic, Federal Democratic Republic of Nepal, Republic of Tajikistan, Turkmenistan, and Republic of Uzbekistan. Organisations: ICOMOS, ICAHM, UNESCO World Heritage Centre, UNESCO Almaty Cluster Office, UNESCO Cluster Office in Tashkent, and UCL.",Numerous countries,NA,NA,
48,60,60,"Numerous countries. Maritime Silk Routes. Tim Williams, with experts from Japan, Republic of Korea, People’s Republic of China, Indonesia, Philippines, Singapore, Republic of India, Sri Lanka, Tanzania, Islamic Republic of Iran, Abu Dhabi Emirate, Oman, United Arab Emirates, Turkey, France, Canada, Australia. Organisations: ICOMOS, UNESCO World Heritage Centre, and UCL.",Numerous countries,Na,NA,
49,61,61,"Easter Island, Rapa Nui. Landscapes of Construction Project. Sue Hamilton with Universities of Bournemouth, Manchester, Highlands and Islands, Chile Santiago, Hawaii Pacific; Rapa Nui National Parks Authority; Museo Antropológico Padre Sebastián Englert.","Easter Island, Rapa Nui",-109.3496865,-27.112723,"easter island, valparaíso, chile"
50,62,62,"New Zealand, Auckland. Interr-ogating Archaeological Data for Climatic Information. Martin Bridge with Auckland University Dendrochronology Laboratory.","New Zealand, Auckland",174.7624886,-36.8483048,"auckland, new zealand"
51,63,63,"Australia, Canada, Norway, Portugal, Sweden, Switzerland, UK, USA. Heritage Futures. Rodney Harrison with Universities of Exeter, Linnaeus, and York, and collaborating with 25 national and international partner organisations.","Australia, Canada, Norway, Portugal, Sweden, Switzerland, UK, USA",NA,NA,NA
52,64,64,"Fiji, Nukabaluvu. Sharyn Jones with Northern Kentucky University (Early Rice Project).","Fiji, Nukabaluvu.",179.32757,-16.807229,"kentucky, usa"
53,65,1,"England, Portsmouth. Tudor Warship Mary Rose. Martin Bridge with Mary Rose Trust.","England, Portsmouth",-1.0879769,50.8197675,"portsmouth, uk"
54,66,2,"England, Portsmouth. Corrosion of Iron from The Mary Rose. Hayley Simon and Ian Freestone with the Mary Rose Trust and Diamond Light Source.","England, Portsmouth",-1.0879769,50.8197675,"portsmouth, uk"
55,67,3,England. Stability of Glass in English Heritage Collections. Antanas Melinis and Ian Freestone with English Heritage.,England,-1.1743197,52.3555177,"england, uk"
56,68,4,England. Great Bedwyn Research Project. Stuart Brookes and Andrew Reynolds.,England,-1.1743197,52.3555177,"england, uk"
57,69,5,"England, Devon. Buckfast. Andrew Reynolds with Newcastle University.","England, Devon",-3.530875,50.7155591,"devon, uk"
58,70,6,"England, Boxgrove. Mark Roberts, Simon Parfitt and Matt Pope.","England, Boxgrove",-0.7126017,50.859304,"boxgrove, chichester po18, uk"
59,71,7,"England, Yorkshire. Boynton House. Tim Schadla-Hall with Durham University.","England, Yorkshire",NA,NA,NA
60,72,8,"England, Hampshire. Chilton Candover. Tim Schadla-Hall and colleagues.","England, Hampshire",-1.3080629,51.0576948,"hampshire, uk"
61,73,9,"Jersey, La Cotte de St Brelade. Matt Pope, Beccy Scott and Chris Stringer.","Jersey, La Cotte de St Brelade",-2.1882373,49.1755631,jersey
62,74,10,"Jersey, Les Varines. Ed Blinkhorn, Matt Pope and Beccy Scott.","Jersey, Les Varines",-2.0835934,49.1868256,"les varines, jersey je2, jersey"
63,75,11,"England, West Sussex. Bow Hill Project, The Slindon Bottom Project, The Downley Project, The Goodwood Estate Monument Survey Mark Roberts and Robert Kaleta.","England, West Sussex",-0.4617075,50.9280143,"west sussex, uk"
64,76,12,"England, Cheshire. Blackden Project. Mark Roberts.","England, Cheshire",-2.6103158,53.2326344,"cheshire, uk"
65,77,13,"England, Sussex and Hampshire Coastal Plain. The Exotic Rock Project. Mark Roberts.","England, Sussex and Hampshire Coastal Plain",-1.3080629,51.0576948,"hampshire, uk"
66,78,14,"England, Yorkshire. Malham Chapel Project. Mark Roberts.","England, Yorkshire",-1.3852500,53.982527,NA
67,79,15,"England. Guildford, Surrey, Kingsmead Quarry (Horton), Middlesex, and Farndon fields, Nottinghamshire. Richard MacPhail with Oxford Archaeology, Oxford University, Wessex Archaeology and Nottingham County Council.",England,-1.1743197,52.3555177,"england, uk"
68,80,16,"England, Huntington, Cambridgeshire. Late Roman dark earth (Headland-MOLA Infrastructure). Richard Mac Phail.","England, Huntington, Cambridgeshire",-0.182552,52.33146,"huntingdon, uk"
69,81,17,"England, Clandon Park. Hinemihi Maori Meeting House: People-based Conservation. Dean Sully with Ngäti Ragana; Ngäti Hinemihi; New Zealand Historic Places Trust; National Trust; and ICCROM.","England, Clandon Park",-0.5087918,51.2506636,"west clandon, guildford gu4 7rq, uk"
70,82,18,England. The Portable Antiquities Scheme Database as a Tool for Archaeological Research. Roger Bland with Katherine Robbins.,England,-1.1743197,52.3555177,"england, uk"
71,83,19,"England, West Sussex. Highdown, West Sussex Late Roman/Early Anglo-Saxon cemetery. Sue Harrington in collaboration with James Sainsbury, Worthing Museum, with support from Archaeology South East","England, West Sussex",-0.4617075,50.9280143,"west sussex, uk"
72,84,20,"England, Northamptonshire. The sculpted and architectural stonework from Stanwick Roman villa, Northamptonshire. Martin Henig with Penny Coombe and Kevin Hayward, with Historic England [Vicky Crosby, Andrew Lowerre, David Neal, and Sarah Paynter]","England, Northamptonshire",-0.8755515,52.2729944,"northamptonshire, uk"
73,85,21,"England, Lincoln. Metalwork and Metalworking in Viking Age Lincoln. Justine Bayley with Institute of Archaeology, Oxford.","England, Lincoln",-0.540579,53.230688,"lincoln, uk"
74,86,22,"England, Prittlewell. The Princely Burial. Harriet White, Justine Bayley with MoLA.","England, Prittlewell",0.7072254,51.5487013,"prittlewell, westcliff-on-sea, southend-on-sea ss2, uk"
75,87,23,"England, Chichester. Romanisation of Iron Age Precious Metals. Justine Bayley.","England, Chichester",-0.774936,50.83761,"chichester, uk"
76,88,24,England. Medieval Music Wire. Justine Bayley.,England,-1.1743197,52.3555177,"england, uk"
77,89,25,England. Roman and Medieval Silver Production and Refining. Justine Bayley.,England,-1.1743197,52.3555177,"england, uk"
78,90,26,England and Wales. Stones of Stonehenge. Mike Parker Pearson with Universities of Bournemouth and Southampton.,England and Wales,-4.7252854,51.965476,"lower st mary's st, newport sa42 0ts, uk"
79,91,27,"England, Hertfordshire (and neighbouring counties). Geophysical surveys at Verulamium and other sites. The Community Archaeology Geophysics Group led by Kris Lockyear and Ellen Shlasko.","England, Hertfordshire (and neighbouring counties)",-0.2376744,51.8097823,"hertfordshire, uk"
80,92,28,"England, Cambridgeshire. Soham. Iron Age and Roman agricultural landscape and Early Anglo-Saxon cemetery. Lucy Sibun (Archaeology South-East, ASE).","England, Cambridgeshire",0.1218195,52.2052973,"cambridgeshire, uk"
81,93,29,"England, East Sussex. Horam. Post-medieval iron-ore quarry site (Simon Stevens); Ringmer. Post-medieval tile kiln site (Simon Stevens); Pocock’s Field, Eastbourne. Prehistoric, Roman, Anglo-Saxon remains (Giles Dawkes); Seaford Head 6th Form Centre. Mesolithic to Bronze Age flint-working site (Karine Le Hégarat and Ed Blinkhorn); Brighton Dome, Brighton. Early 19th century historic building recording and Quaker burial ground (Michael Shapland and Garrett Sheehan); Excavations in Lewes. Iron Age, medieval and post-medieval occupation (Dan Swift); Rampion Onshore Cable Route. Prehistoric and Anglo-Saxon development (Garrett Sheehan).","England, East Sussex",0.2494166,50.9085955,"east sussex, uk"
82,94,30,"England, Essex. Multiple projects conducted by ASE. Harlow Enterprise Park. Roman Road. (Trevor Ennis); Alresford. Middle Iron Age field system and medieval rural settlement and field system (Samara King); Basildon. Late Iron Age/Early Roman cremation burial site and Early Saxon occupation site (James Alexander); Cressing. Late Iron Age/Roman farmstead and Medieval field system (Samara King); Rochford. Middle/Late Bronze Age field system, medieval farmstead and field system (Paulo Clemente); Harlow. Bronze Age, Iron Age, Roman and medieval settlement and agricultural activity (Trevor Ennis).","England, Essex",0.4856781,51.5742447,"essex, uk"
83,95,31,"England, Surrey. Walton Court, Walton on Thames. Historic Build recording (Katya Harrow, ASE).","England, Surrey",-0.5599501,51.3147593,"surrey, uk"
84,96,32,"England, Kent. Multiple projects conducted by ASE. Bapchild. Multi-period landscape excavation, Neolithic enclosure and Iron Age occupation (Giles Dawkes and Sophie Austin); Scotney Castle, Lamberhurst (Michael Shapland).","England, Kent",0.5217254,51.2787075,"kent, uk"
85,97,33,"England, Suffolk. Multiple projects conducted by ASE. Kings Warren, Red Lodge. Early Neolithic, Early Bronze Age, Iron Age, and Early Roman (Angus Foreshaw); Leiston. Late Neolithic/Early Bronze Age monument, Bronze Age trackway and Roman field system (Samara King); Wetherden Road, Elmswell. Early Roman kiln and Saxon occupation (Kieron Heard); Chilton Leys, Stowmarket. Bronze Age, Roman and early medieval agricultural land use, and medieval moated roadside enclosures (Kieron Head); Moreton Hall/Lark Grange, Bury St. Edmunds. Middle Iron Age and medieval boundary ditches and pits and 20th century airfield (James Alexander, Craig Carvey, Angus Forshaw); Henley Gate, Ipswich. Early Iron Age occupation site, early Roman boundaries and enclosure and medieval field system (Angus Forshaw); Ferry Road, Felixstowe. Early Neolithic occupation, Early Iron Age ditched enclosure, late Iron Age field system, and Saxo-Norman settlement activity (Paulo Clemente).","England, Suffolk",0.9707801,52.1872472,"suffolk, uk"
86,98,34,"England, West Sussex. Multiple projects conducted by ASE. Madgwick Lane, Chichester. Early Bronze Age cremation cemetery, Late Bronze Age-Iron Age hilltop enclosure (Hayley Nicholls); Chichester pipeline (Garrett Sheehan); Sussex House, Crawley. Medieval suburban and urban site (Kathryn Grant); Billinghurst. Middle Iron Age- Roman settlement (Hayley Nicholls).","England, West Sussex",-0.4617075,50.9280143,"west sussex, uk"
87,99,35,"Wales, Caerleon. Priory Field. Andrew Gardner with Cardiff University; Cadw, National Roman Legion Museum, Caerleon; National Museum Wales, Cardiff.","Wales, Caerleon",-2.9562689,51.610283,"caerleon, newport, uk"
88,100,36,"Scotland, South Uist, Howmore. Andrew Reynolds.","Scotland, South Uist, Howmore",-7.384677,57.302065,"homore, isle of south uist hs8 5sh, uk"
89,101,37,"Britain. Composition, Corrosion and Production of Medieval Window Glass. Laura Adlington and Ian Freestone with York Glaziers Trust and Royal Holloway University of London.",Britain,-3.435973,55.378051,united kingdom
90,102,38,"Britain. Roman metalworking ceramics. Carlotta Gardner and Ian Freestone with MoLA and Demokritos, Athens.",Britain,-3.435973,55.378051,united kingdom
91,103,39,Britain. Technology of Roman cameo glass. Ian Freestone with the British Museum and The Glassmakers.,Britain,-3.435973,55.378051,united kingdom
92,104,40,"United Kingdom. Arts and Humanities Research Council Heritage Priority Area Leadership Fellowship. Rodney Harrison, Hana Morel, Susan Sandford-Smith, Colin Sterling, Hana Williams.",United Kingdom,-3.435973,55.378051,united kingdom
93,105,41,"United Kingdom. MicroPasts. Andrew Bevan, Chiara Bonacchi, Daniel Pett, Jennifer Wexler with British Museum, and other museums, universities and archives in Europe, Asia and Northern America.",United Kingdom,-3.435973,55.378051,united kingdom
94,106,42,"Ireland. Cultivating Societies: Assessing the Evidence for Agriculture in Neolithic Ireland. Sue Colledge with Queen’s University, Belfast and Institute of Archaeology, Oxford.",Ireland,-7.6920536,53.1423672,ireland
95,107,43,"Ireland, Dublin. Metalworking in Viking Dublin. Justine Bayley with National Museum of Ireland.","Ireland, Dublin",-6.2603097,53.3498053,"dublin, ireland"
96,108,1,"Thames Discovery Programme. Nathalie Cohen, Gustav Milne and Eliott Wragg.",Thames Discovery Programme,-0.6943111,51.5631569,"river thames, united kingdom"
97,109,2,The Gresham Ship Project. Dean Sully.,The Gresham Ship Project,NA,NA,NA
98,110,3,"Petrie Museum, UCL. Collections in Exile, Persons in Exile: Rethinking the Petrie Palestinian Collection. Beverley Butler with UCL; Tawfik Canaan Collection; and Birzeit University.","Petrie Museum, UCL",-0.1330008,51.5235877,"malet pl, bloomsbury, london wc1e 6bt, uk"
99,111,4,"Roman Fort Gate. Tim Williams, Gai Jorayev and Dean Sully, with Museum of London, City of London and English Heritage.",Roman Fort Gate,NA,NA,NA
100,112,5,"John Dwight’s crucibles. Ian Freestone with Department of Earth Sciences, University of Padova.",John Dwight’s crucibles,NA,NA,NA
101,113,6,Tower of London. The Tudor Mint. Justine Bayley and Harriet White.,Tower of London,-0.0759493,51.5081124,"st katharine's & wapping, london ec3n 4ab, uk"
102,115,8,Islington. Eithorne Park & Islington Community Archaeology Project. Charlotte Frearson with Islington Museum and Council.,Islington,-0.1058058,51.5465063,"london borough of islington, london, uk"
103,116,9,London School of Economics. Mid to late Saxon to post-medieval urban archaeology. Sarah Ritchie (ASE).,London School of Economics,-0.1164513,51.5144388,"houghton st, holborn, london wc2a 2ae, uk"
104,117,10,"Wild Rents, Bermondsey, London. An 18th-19th century tannery. Hayley Nicholls (ASE).","Wild Rents, Bermondsey, London",-0.0844774,51.4979062,"wild's rents, bermondsey, london se1, uk"
105,118,44,"CHEurope: Critical Heritage Studies and the Future of Europe: Towards an integrated, interdisciplinary and transnational training model in cultural heritage research and management (Marie Sklodowska-Curie Action Innovative Training Network). Rodney Harrison, Beverley Butler with University of Gothenburg, University of Amsterdam, ISCTE-University Institute of Lisbon, Spanish National Research Council (Consejo Superior de Investigaciones Científicas), University of Hasselt, Utrecht University, the Istituto per I Beni Artistici, Culturali e Naturali of the Region Emilia Romagna, and 21 international heritage and museum sector partner organisations.","CHEurope: Critical Heritage Studies and the Future of Europe: Towards an integrated, interdisciplinary and transnational training model in cultural heritage research and management (Marie Sklodowska-Curie Action Innovative Training Network)",NA,NA,NA
106,120,46,The Palaeolithic of Europe: A Demographic and Social (Pre) history. Jennifer French.,The Palaeolithic of Europe: A Demographic and Social (Pre) history,NA,NA,NA
107,121,47,"Europe. i-treasures with a focus on Corsica, Sardinia, the Walloon Region of Belgium and Northern Greece. Marilena Alivizatou.",Europe,NA,NA,NA
108,122,48,Belgium. FENESTRA. 800 years of window glass. Ian Freestone with VU Brussels.,Belgium,4.469936,50.503887,belgium
109,123,49,"Norway, Oslo (and Oslo area; medieval City, and Oslo Harbour sediments and shipwrecks). Løten, Hedmark (Iron Age upland cairn fields and iron working); Avaldsnes, Karmøy, Rogaland (Iron Age and medieval royal manor); Trondheim and north-west coast (Mesolithic to Iron Age settlements). Richard Macphail with Culture History Museum and Oslo University, The Norwegian Institute for Cultural Heritage Research, and the Norwegian University of Science and Technology.","Norway, Oslo (and Oslo area; medieval City, and Oslo Harbour sediments and shipwrecks)",10.7522454,59.9138688,"oslo, norway"
110,124,50,"Denmark, Coastal Jutland. Bronze Age burial mound (Østfyns Museer). Richard McPhail.","Denmark, Coastal Jutland",9.20105,55.62955,"jutland, 6040 egtved, denmark"
111,125,51,"France, Italy, Greece, Israel, West Bank, Turkey. Changing the Face of the Mediterranean. Land cover and population since the advent of Farming. Andrew Bevan, Alessio Palmisano and Stephen Shennan with Plymouth University.","France, Italy, Greece, Israel, West Bank, Turkey",NA,NA,NA
112,126,52,"Spain. The Basque Country. Vitoria, Aistra. Andrew Reynolds with University of the Basque Country.",Spain,-3.74922,40.463667,spain
113,127,53,"Spain, Córdoba: Heritage of Historic Cities and Multi-culturalism. Beverley Butler with Cordoba University.","Spain, Córdoba: Heritage of Historic Cities and Multi-culturalism",-4.7793835,37.8881751,"córdoba, spain"
114,128,54,"Spain, Buendia Rockshelter. Ignacio de la Torre with Centro Nacional de Investigación sobre la Evolución Humana, Spain.","Spain, Buendia Rockshelter",-2.497331,40.417881,
115,129,55,"Spain, Cova Gran and Roca dels Bous. Ignacio de la Torre with Universidad Autonoma de Barcelona, Spain; and Centro Nacional de Investigación sobre la Evolución Humana.","Spain, Cova Gran and Roca dels Bous",0.8110618,41.9258917,"unnamed rd,, 25612 os de balaguer, lleida, spain"
116,130,56,"Spain, Arganzón castle, Burgos. Juan Antonio Quirós.","Spain, Arganzón castle, Burgos",-2.8190313,42.7885791,"09294 la puebla de arganzón, burgos, spain"
117,131,57,"Spain, Lantarón castle, Álava. Juan Antonio Quirós.","Spain, Lantarón castle, Álava",-2.8336449,42.6703698,"01212 zambrana, álava, spain"
118,132,58,"Spain, Vera Valley. VERASUR, Discovering the Long-Term Human Occupation in the West Mediterranean: Archaeological Survey in the Vera Depression (Almeria, Spain). Borja Legarra Herrero with Mercedes Murillo Barroso, University of Granada, Spain.","Spain, Vera Valley",-5.6878736,40.1285948,"la vera, cáceres, spain"
119,133,59,"Spain, Villaneva de Santo Adriano. Archaeology of the commons in Asturias, Spain. Gabriel Moshenska and Jesús Fernández Fernández (LaPonte Ecomuseum).","Spain, Villaneva de Santo Adriano",-6.001129,43.2722222,"33115 villanueva, asturias, spain"
120,134,60,"Spain and Portugal. Multiple locations. IdaVe Project, Village of Idanha-a-Velha, Beixa Baja; Los Hitos, Arisgotas. Castilla La-Mancha. Urban landscape of power in the Iberian Peninsula from Late Antiquity to the Early Middle Ages (ULP.PILAEMA). Isabel Sánchez Ramos, Andrew Reynolds, with Jorge Morín de Pablos (Audema Madrid), Antonio Malalana (Universidad San Pablo Ceu, Madrid) and Jose Ramón González de la Cal (Universidad de Castilla-La Mancha).",Spain and Portugal,-3.6863725,40.4283222,"calle de claudio coello, 65, 28001 madrid, spain"
121,135,61,"Portugal, Moura. Castelo Velho de Safara. Mariana Nabais.","Portugal, Moura",-7.3084571,38.1314891,"moura, portugal"
122,137,63,"Croatia. Composition, Technology and Origins of Iron Age Beads in Croatia. Ana Franjic and Ian Freestone, with Lower Carniola Museum, Zagreb Archaeological Museum, Muzej Slavonije, Šibenik City Museum, University of Zagreb, University of Zadar, Zadar Museum of Ancient Glass, Arheološki Muzej Istre, Zemaljski Muzej, Bosne I Hercegovine, Gradski Muzej Karlovac, Gradski Muzej Virovitica, Vinkovci City Museum, Zagreb Institute of Archaeology, ETH Zurich and Aarhus University.",Croatia,15.2000001,45.1,croatia
123,138,64,"Croatia, Dalmatia. Economy of Pre-Roman Adriatic Communities: amphora production and trade patterns in a changing world (EPRAC). Maja Mise and Patrick Quinn, with Archaeological Museum Split, Municipal Museum Kastela, Citi Museum Stari Grad, Departments of Underwater Archaeology at University of Zadar and Croatian Conservation Institute, and Missouri University Research Reactor.","Croatia, Dalmatia",16.8178377,43.5240328,"split-dalmatia county, croatia"
124,139,65,"Romania, Noviodunum, Tulcea. Kris Lockyear with Fitzwilliam Museum, Cambridge; and Southampton University.","Romania, Noviodunum, Tulcea",28.7914439,45.1716165,"tulcea, romania"
125,140,66,"Romania, Taşnad. Excavation of a Criş Settlement. Ulrike Sommer with Satu Mare Museum.","Romania, Taşnad",22.5817433,47.4783904,"tășnad 445300, romania"
126,141,67,"Ukraine, Nebelivka Tripillia. Geoarchaeological Research at Mega-site. Manuel Arroyo-Kalin with Durham University.","Ukraine, Nebelivka Tripillia",30.7634444,50.1191325,"trypillya, kyiv oblast, ukraine, 08722"
127,142,68,"Serbia, Pločnik, near Prokuplje. Vinča culture site. Miljana Radivojevic with the Homeland Museum in Toplica (Julka Kuzmanovic Cvetkovic).","Serbia, Pločnik, near Prokuplje",21.3443106,43.2040013,"pločnik, serbia"
128,143,69,"Russia, Muradimovskoe Poselnie, near Ufa. Late Bronze Age site with metallurgical production. Miljana Radivojevic with the Bashkir State Pedagogical University.","Russia, Muradimovskoe Poselnie, near Ufa",55.9578555,54.734791,"ufa, republic of bashkortostan, russia"
129,144,70,"Russia, Podsinyushka, near Barnaul. Early Bronze Age site in the Altai Mountains. Miljana Radivojevic with Sergey Grushin (Altai State University).","Russia, Podsinyushka, near Barnaul",83.7835737,53.3497499,"barnaul, altai krai, russia"
130,145,71,"Italy, Marche. Upper Esino Valley Survey. Corinna Riva.","Italy, Marche",12.989615,43.5058744,"marche, italy"
131,146,72,"Italy, Vulci. The ports of Etruscan Vulci: understanding the connectivity of a major ancient Mediterranean city. Corinna Riva (coordinator), Kris Lockyear, with Soprintendenza archeologia, belle arti e paesaggio per l’area metropolitana di Roma, la provincia di Viterbo e l’Etruria meridionale, Parco Archeologico di Vulci and the British School at Rome.","Italy, Vulci",11.6310953,42.4241163,"vulci, 01014 montalto di castro vt, italy"
132,147,73,"Greece, Antikythera. Antikythera Survey Project. Andrew Bevan with Trent University, Canada; and Greek Archaeological Service.","Greece, Antikythera",23.3049491,35.8620412,"antikythera, antikithira, greece"
133,148,74,"Greece, Astypalaia, Dodecanese. Cemeteries on the Island of Astypalaia. Simon Hillson.","Greece, Astypalaia, Dodecanese",26.3131356,36.5389811,"astypalaia, greece"
134,150,76,"Greece, Crete. The Knossos Urban Landscape Project. Todd Whitelaw with British School at Athens and Herakleion Ephoreia of the Greek Archaeological Service.","Greece, Crete",24.8092691,35.240117,"crete, greece"
135,151,77,"Greece, Neo Monastiri/Phthiotis. Koutroulou Magoula Archaeology Project: from the Neolithic to the present. Vasilis Tsamis with British School at Athens, Yannis Hamilakis: Brown University and Nina Kyparissi-Apostolika: Greek Archaeological Service.","Greece, Neo Monastiri/Phthiotis",22.2741094,39.2408251,"neo monastiri fthiotidas 350 10, greece"
136,153,79,"Greece. Crete. Minoan Gold: An Archaeometallurgical Analysis of Crete’s Place in the East Mediterranean World. Borja Legarra Herrero, with Marcos Martinón-Torres, University of Cambridge.",Greece,21.824312,39.074208,greece
137,154,80,"Cyprus, Lapithos. Revisiting and ancient craft in a contested region: the analytical paradigm of prehistoric pottery from Cyprus (ReCyPot). Maria Dikomitou Eliadou, Todd Whitelaw, Agnese Benzonelli, in collaboration with La Trobe University, the University of Cyprus, the Fitch Laboratory, British School at Athens, and the University of Cambridge.","Cyprus, Lapithos",33.1632665,35.3364082,lapta
138,155,81,"Turkey, Çatalhöyük. The Social Geography of the Çatalhöyük Settlement. Katherine (Karen) Wright with UCL; Universities of Stanford, UC Merced, Southampton, Istanbul, Selcuk, Thrace, Adam Mickiewicz, New York State (SUNY) and Buffalo; and Free University Berlin.","Turkey, Çatalhöyük",32.8256599,37.6664372,"küçükköy, çatalhöyük yolu, 42500 çumra/konya, turkey"
139,157,83,Turkey. Technology of Seljuq Ceramics and Glass from Kubad Abad. Ian Freestone with Universities of Cukurova and Ankara.,Turkey,35.243322,38.963745,turkey
140,158,84,"Turkey, Boncuklu Höyük. Boncuklu Höyük Project. Louise Martin with Universities of Liverpool, Queensland, Reading, and Harvard.","Turkey, Boncuklu Höyük",32.8648048,37.7517254,"hayıroğlu, 42290 karatay/konya, turkey"
141,159,85,"Material Connections: Mobility, Materiality and Mediterranean Identities. Corinna Riva with UCL and Glasgow University.","Material Connections: Mobility, Materiality and Mediterranean Identities",NA,NA,NA
142,160,86,"Israel/Palestine. Understanding Heritage Wellbeing: Traditional Healers and Eye Care. Beverley Butler with Eye Hospital, Order of St John; Sheikh Jarrah.",Israel/Palestine,34.851612,31.046051,israel
143,161,87,"Israel, Jordan Valley. Tel Bet Yerah. Early Bronze Age and Early Islamic. David Wengrow with Raphael Greenberg.","Israel, Jordan Valley",35.5699418,32.3171675,"jordan valley, jordan"
144,162,88,Israel. Glass from the Sea. Ian Freestone with Israel Antiquities Authority.,Israel,34.851612,31.046051,israel
145,163,89,"Palestine. Collections in Exile, Persons in Exile: Rethinking the Petrie Palestinian Collection (UCL) and the Tawfik Canaan Collection (Birzeit University). Beverley Butler.",Palestine,35.233154,31.952162,palestine
146,164,90,Lebanon. Hellenistic and early Roman glass from Beirut. Ian Freestone with KU Leuven.,Lebanon,35.862285,33.854721,lebanon
147,165,91,"Lebanon, Qadisha. Qadisha Valley Project. Epipalaeolithic- Neolithic Excavations at Moghr el-Ahwal. Andrew Garrard, Kevan Edinborough, Yvonne Edwards, Richard Macphail and Katherine (Karen) Wright with Lebanese University Beirut; Lampeter.","Lebanon, Qadisha",35.9527842,34.2845425,"kadisha valley, lebanon"
148,166,92,Lebanon. Beirut Souks. Dominic Perring (CAA/ASE) and Tim Williams with American University of Beirut.,Lebanon,35.862285,33.854721,lebanon
149,167,93,"Jordan. Glass production in Roman and Byzantine Jerash. Ian Freestone with UrbNet, Aarhus University.",Jordan,36.51,31.24,
150,168,94,Jordan. Glass production in Khirbet edh-Dharih. Ian Freestone with Yarmouk University.,Jordan,36.51,31.24,
151,169,95,Jordan. Kharaneh IV. Epipalaeolithic Excavations. Louise Martin with University of California (Berkeley).,Jordan,36.51,31.24,
152,170,96,"Jordan. Azraq Project. Epipalaeolithic- Neolithic Excavations. Andrew Garrard, Sue Colledge, Louise Martin and Katherine (Karen) Wright with Universities of Liverpool, Belfast, Davis California; and CNRS, France.",Jordan,36.51,31.24,
153,171,97,Jordan. Ain Ghazal. Kathryn Tubb with British Museum.,Jordan,36.51,31.24,
154,172,98,"Jordan. Talbiyeh and other Palestinian Refugee Camps in Jordan. Beverley Butler with Petra University, Amman.",Jordan,36.51,31.24,
155,173,99,"Jordan, Turkey, Lebanon, Iraq. Cooking, Dining and the Evolution of Early Agricultural Societies. Katherine (Karen) Wright with UCL; CBRL; Universities of Stanford, Cornell, Sheffield, Liverpool, New York Stony Brook, Oxford, Yarmouk, Istanbul, and Lebanese University Beirut.","Jordan, Turkey, Lebanon, Iraq",NA,NA,NA
156,174,100,"Jordan, Turkey, Lebanon, Iraq. The Neolithic Beginnings of Craft Specialization: Stoneworking, Ground Stone Artefacts and Social Technology. Katherine (Karen) Wright with diverse institutions (see those listed at entry 99).","Jordan, Turkey, Lebanon, Iraq",NA,NA,NA
157,175,101,"Jordan, Turkey, Lebanon, Iraq. Personal Ornaments and the Origins of Stone Beadmaking. Katherine (Karen) Wright, Roseleen Bains and Andrew Garrard, with diverse institutions, see 99 above.","Jordan, Turkey, Lebanon, Iraq",NA,NA,NA
158,176,102,"Jordan, Turkey, Lebanon, Iraq. The Ancient Levant: Social Networks and Long-Term Histories. Katherine (Karen) Wright with 25 other scholars from UK universities.","Jordan, Turkey, Lebanon, Iraq",NA,NA,NA
159,178,104,"Iraq, Rania Plain. Girdi Bazar Project. Mark Altaweel with University Munich.","Iraq, Rania Plain",44.8855495,36.2390965,"ranya, iraq"
160,179,105,"Iraq, Nimrud. The Ivories from Nimrud Volume VIII. Stuart Laidlaw, Georgina Herrmann, Helena Coffey.","Iraq, Nimrud",43.328889,36.098056,
161,180,106,"Iraqi Kurdistan. Later Prehistory of the Shahrizor Plain. David Wengrow with Directorate of Antiquities, Suleymaniyah Province, and UCL Qatar.",Iraqi Kurdistan,44.3871953,36.4103395,"kurdistan region, iraq"
162,182,108,Iran. From Islamic manuscripts to the laboratory. Rahil Alipour and Thilo Rehren.,Iran,53.688046,32.427908,iran
163,183,109,"Saudi Arabia. Jubbah Oasis, Nefud Desert. Palaeodeserts Project. Maria Guagnin (Freie Universitat Berlin), Michael Petraglia (Max Plank Institute) and team, with Louise Martin.",Saudi Arabia,45.079162,23.885942,saudi arabia
164,184,110,"Oman. Dhofar and multiple locations in southern Oman. ASOM project (Ancient Socioecological Systems in Oman). Joy McCorriston, Mark Mortiz, Ian Hamilton (Ohio State University) and team, with Louise Martin.",Oman,55.975413,21.4735329,oman
165,185,111,"United Arab Emirates. Early Islamic Glass from Sir Bani Yas. Ian Freestone and Matt Phelps with St John Simpson, the British Museum.",United Arab Emirates,53.847818,23.424076,united arab emirates
166,186,112,"Egypt and UK. Cairo, Liverpool, Edinburgh. Egypt’s Dispersed Heritage: Views from Egypt. Alice Stevenson, Heba Abd el-Gawad with Mahatat Contemporary Arts, ICOM (Egypt), National Museums Liverpool, and National Museums Scotland (UK).",Egypt and UK,30.802498,26.820553,
167,187,113,"Egypt. Origins of Nationhood: a New Chronology for Egyptian State Formation. David Wengrow with Research Laboratory for Archaeology and History of Art, Oxford University.",Egypt,30.802498,26.820553,egypt
168,188,114,"Egypt. Decolonising Archaeology: Ethnographies in Egypt. Stephen Quirke with New Hermopolis, Tuna al-Jabal, Minya and Fayoum University.",Egypt,30.802498,26.820553,egypt
169,189,115,"Egypt, Faiyum. Gurob Harem Palace Project, Faiyum. Settlement Archaeology at a Royal Town Site. Jan Picton with Petrie Museum UCL; and Universities of Liverpool, Copenhagen.","Egypt, Faiyum",30.8428497,29.3084021,"faiyum, qesm al fayoum, faiyum, faiyum governorate, egypt"
170,190,116,Coin Hoards of the Roman Republic. Kris Lockyear with American Numismatic Society.,Coin Hoards of the Roman Republic,NA,NA,NA
171,191,117,Egypt. Mit Rahina Field School: Settlement archaeology in Middle Kingdom Memphis. Ana Tavares with David Jeffreys; Ancient Egypt Research Associates; American Research Centre in Egypt; Ministry of State for Antiquities; Egypt Exploration Society; and Cambridge University.,Egypt,30.802498,26.820553,egypt
172,192,118,"Libya, Ghadames Archaeological Survey. Corisande Fenwick with University of Leicester.","Libya, Ghadames Archaeological Survey",9.4950555,30.1317637,"gadamis, libya"
173,193,119,"Tunisia, Libya. Training in Action Project. Corisande Fenwick, Gaigysyz Jorayev with Durham University, KCL, Institut National du Patrimoine de Tunisie, Department of Antiquities, Libya.","Tunisia, Libya",9.537499,33.886917,
174,194,120,"Tunisia. Early Islamic Glass Workshop from Sabra-al-Mansuriya. Ian Freestone with CNRS, France.",Tunisia,9.537499,33.886917,tunisia
175,195,121,"Tunisia. Bulla Regia Archaeological Project. Corisande Fenwick with Institut National du Patrimoine, Tunisia.",Tunisia,9.537499,33.886917,tunisia
176,196,122,"Morocco, Wadi Draa. Wadi Draa Archaeological Project. Corisande Fenwick with Institut National des Sciences de l’Archéologie et du Patrimoine and University of Leicester.","Morocco, Wadi Draa",-7.9139713,29.2171214,"oued draa, morocco"
177,197,123,"Morocco, Volubilis. Volubilis Archaeological Project. Corisande Fenwick with Insitut National des Sciences de l’Archéologie et du Patrimoine.","Morocco, Volubilis",-5.5526793,34.0708021,"el menzeh, meknes, morocco"
178,NA,NA,"USA, Charleston, South Carolina. The lost fort of Castle Pinckney: from American Revolution to Civil War. Giles Dawkes with John Fisher, South Carolina Institute of Archaeology and Anthropology.","USA, Charleston, South Carolina",-79.9310512,32.7764749,"charleston, sc, usa"
179,NA,NA,"United Kingdom. Opening New Pathways to Impact across Heritage Research, Policy and Practice (Arts and Humanities Research Council Heritage Priority Area Leadership Fellowship Follow-on-Funding project). Rodney Harrison and Han Morel.",United Kingdom,-3.435973,55.378051,united kingdom
180,NA,NA,"United Kingdom. Landscape Futures and the Challenge of Change: Towards Integrated Cultural/Natural Heritage Decision Making (Heritage Futures Follow-on-Funding project). Rodney Harrison with University of Exeter, National Trust, Historic England and Natural England.",United Kingdom,-3.435973,55.378051,united kingdom
181,NA,NA,"England. Suffolk and Norfolk. Lordship and Landscape in East Anglia CE 400–800. Christopher Scull with University of East Anglia and Fitzwilliam Museum, Cambridge.",England,-1.1743197,52.3555177,"england, uk"
182,NA,NA,"England, Suffolk. Rendlesham Revealed: Anglo-Saxon Life in South-East Suffolk. Christopher Scull with Suffolk County Council. ","England, Suffolk",0.9707801,52.1872472,"suffolk, uk"
183,NA,NA,"England, Suffolk. Oulton Anglo-Saxon Cemetery. Christopher Scull and Sue Harrington with Archaeological Solutions.","England, Suffolk",0.9707801,52.1872472,"suffolk, uk"
184,NA,NA,"Sudan, Shaqadud. Dorian Fuller, with Czech Institute of Archaeology","Sudan, Shaqadud",35,14,NA
185,NA,NA,"India, Gajagirigutta, Telangana. Dorian Fuller, Eleanor Kingwell-Banham, with Univ. of Hyderabad","India, Gajagirigutta, Telangana",78.4077422,17.5073336,"jagathgiri gutta, hyderabad, telangana, india"
186,NA,NA,United Kingdom. Monumentality and Landscape: Linear Earthworks in Britain. Andrew Reynolds and Barney Harris with Durham University.,United Kingdom,-3.435973,55.378051,united kingdom