{
"type": "FeatureCollection",
"name": "locs2020_weu",
"crs": { "type": "name", "properties": { "name": "urn:ogc:def:crs:OGC:1.3:CRS84" } },
"features": [
{ "type": "Feature", "properties": { "X.1": "169", "X": "189", "num": "115", "text": "Egypt, Faiyum. Gurob Harem Palace Project, Faiyum. Settlement Archaeology at a Royal Town Site. Jan Picton with Petrie Museum UCL; and Universities of Liverpool, Copenhagen.", "loc": "Egypt, Faiyum", "address": "faiyum, qesm al fayoum, faiyum, faiyum governorate, egypt", "CONTINENT": "Africa", "map_num": 13 }, "geometry": { "type": "Point", "coordinates": [ 30.8428497, 29.3084021 ] } },
{ "type": "Feature", "properties": { "X.1": "172", "X": "192", "num": "118", "text": "Libya, Ghadames Archaeological Survey. Corisande Fenwick with University of Leicester.", "loc": "Libya, Ghadames Archaeological Survey", "address": "gadamis, libya", "CONTINENT": "Africa", "map_num": 15 }, "geometry": { "type": "Point", "coordinates": [ 9.4950555, 30.1317637 ] } },
{ "type": "Feature", "properties": { "X.1": "173", "X": "193", "num": "119", "text": "Tunisia, Libya. Training in Action Project. Corisande Fenwick, Gaigysyz Jorayev with Durham University, KCL, Institut National du Patrimoine de Tunisie, Department of Antiquities, Libya.", "loc": "Tunisia, Libya", "address": "", "CONTINENT": "Africa", "map_num": 16 }, "geometry": { "type": "Point", "coordinates": [ 9.537499, 33.886917 ] } },
{ "type": "Feature", "properties": { "X.1": "174", "X": "194", "num": "120", "text": "Tunisia. Early Islamic Glass Workshop from Sabra-al-Mansuriya. Ian Freestone with CNRS, France.", "loc": "Tunisia", "address": "tunisia", "CONTINENT": "Africa", "map_num": 17 }, "geometry": { "type": "Point", "coordinates": [ 9.537499, 33.886917 ] } },
{ "type": "Feature", "properties": { "X.1": "175", "X": "195", "num": "121", "text": "Tunisia. Bulla Regia Archaeological Project. Corisande Fenwick with Institut National du Patrimoine, Tunisia.", "loc": "Tunisia", "address": "tunisia", "CONTINENT": "Africa", "map_num": 18 }, "geometry": { "type": "Point", "coordinates": [ 9.537499, 33.886917 ] } },
{ "type": "Feature", "properties": { "X.1": "176", "X": "196", "num": "122", "text": "Morocco, Wadi Draa. Wadi Draa Archaeological Project. Corisande Fenwick with Institut National des Sciences de l’Archéologie et du Patrimoine and University of Leicester.", "loc": "Morocco, Wadi Draa", "address": "oued draa, morocco", "CONTINENT": "Africa", "map_num": 19 }, "geometry": { "type": "Point", "coordinates": [ -7.9139713, 29.2171214 ] } },
{ "type": "Feature", "properties": { "X.1": "177", "X": "197", "num": "123", "text": "Morocco, Volubilis. Volubilis Archaeological Project. Corisande Fenwick with Insitut National des Sciences de l’Archéologie et du Patrimoine.", "loc": "Morocco, Volubilis", "address": "el menzeh, meknes, morocco", "CONTINENT": "Africa", "map_num": 20 }, "geometry": { "type": "Point", "coordinates": [ -5.5526793, 34.0708021 ] } },
{ "type": "Feature", "properties": { "X.1": "138", "X": "155", "num": "81", "text": "Turkey, Çatalhöyük. The Social Geography of the Çatalhöyük Settlement. Katherine (Karen) Wright with UCL; Universities of Stanford, UC Merced, Southampton, Istanbul, Selcuk, Thrace, Adam Mickiewicz, New York State (SUNY) and Buffalo; and Free University Berlin.", "loc": "Turkey, Çatalhöyük", "address": "küçükköy, çatalhöyük yolu, 42500 çumra\/konya, turkey", "CONTINENT": "Asia", "map_num": 41 }, "geometry": { "type": "Point", "coordinates": [ 32.8256599, 37.6664372 ] } },
{ "type": "Feature", "properties": { "X.1": "139", "X": "157", "num": "83", "text": "Turkey. Technology of Seljuq Ceramics and Glass from Kubad Abad. Ian Freestone with Universities of Cukurova and Ankara.", "loc": "Turkey", "address": "turkey", "CONTINENT": "Asia", "map_num": 42 }, "geometry": { "type": "Point", "coordinates": [ 35.243322, 38.963745 ] } },
{ "type": "Feature", "properties": { "X.1": "140", "X": "158", "num": "84", "text": "Turkey, Boncuklu Höyük. Boncuklu Höyük Project. Louise Martin with Universities of Liverpool, Queensland, Reading, and Harvard.", "loc": "Turkey, Boncuklu Höyük", "address": "hayıroğlu, 42290 karatay\/konya, turkey", "CONTINENT": "Asia", "map_num": 43 }, "geometry": { "type": "Point", "coordinates": [ 32.8648048, 37.7517254 ] } },
{ "type": "Feature", "properties": { "X.1": "142", "X": "160", "num": "86", "text": "Israel\/Palestine. Understanding Heritage Wellbeing: Traditional Healers and Eye Care. Beverley Butler with Eye Hospital, Order of St John; Sheikh Jarrah.", "loc": "Israel\/Palestine", "address": "israel", "CONTINENT": "Asia", "map_num": 44 }, "geometry": { "type": "Point", "coordinates": [ 34.851612, 31.046051 ] } },
{ "type": "Feature", "properties": { "X.1": "143", "X": "161", "num": "87", "text": "Israel, Jordan Valley. Tel Bet Yerah. Early Bronze Age and Early Islamic. David Wengrow with Raphael Greenberg.", "loc": "Israel, Jordan Valley", "address": "jordan valley, jordan", "CONTINENT": "Asia", "map_num": 45 }, "geometry": { "type": "Point", "coordinates": [ 35.5699418, 32.3171675 ] } },
{ "type": "Feature", "properties": { "X.1": "144", "X": "162", "num": "88", "text": "Israel. Glass from the Sea. Ian Freestone with Israel Antiquities Authority.", "loc": "Israel", "address": "israel", "CONTINENT": "Asia", "map_num": 46 }, "geometry": { "type": "Point", "coordinates": [ 34.851612, 31.046051 ] } },
{ "type": "Feature", "properties": { "X.1": "145", "X": "163", "num": "89", "text": "Palestine. Collections in Exile, Persons in Exile: Rethinking the Petrie Palestinian Collection (UCL) and the Tawfik Canaan Collection (Birzeit University). Beverley Butler.", "loc": "Palestine", "address": "palestine", "CONTINENT": "Asia", "map_num": 47 }, "geometry": { "type": "Point", "coordinates": [ 35.233154, 31.952162 ] } },
{ "type": "Feature", "properties": { "X.1": "146", "X": "164", "num": "90", "text": "Lebanon. Hellenistic and early Roman glass from Beirut. Ian Freestone with KU Leuven.", "loc": "Lebanon", "address": "lebanon", "CONTINENT": "Asia", "map_num": 48 }, "geometry": { "type": "Point", "coordinates": [ 35.862285, 33.854721 ] } },
{ "type": "Feature", "properties": { "X.1": "147", "X": "165", "num": "91", "text": "Lebanon, Qadisha. Qadisha Valley Project. Epipalaeolithic- Neolithic Excavations at Moghr el-Ahwal. Andrew Garrard, Kevan Edinborough, Yvonne Edwards, Richard Macphail and Katherine (Karen) Wright with Lebanese University Beirut; Lampeter.", "loc": "Lebanon, Qadisha", "address": "kadisha valley, lebanon", "CONTINENT": "Asia", "map_num": 49 }, "geometry": { "type": "Point", "coordinates": [ 35.9527842, 34.2845425 ] } },
{ "type": "Feature", "properties": { "X.1": "148", "X": "166", "num": "92", "text": "Lebanon. Beirut Souks. Dominic Perring (CAA\/ASE) and Tim Williams with American University of Beirut.", "loc": "Lebanon", "address": "lebanon", "CONTINENT": "Asia", "map_num": 50 }, "geometry": { "type": "Point", "coordinates": [ 35.862285, 33.854721 ] } },
{ "type": "Feature", "properties": { "X.1": "149", "X": "167", "num": "93", "text": "Jordan. Glass production in Roman and Byzantine Jerash. Ian Freestone with UrbNet, Aarhus University.", "loc": "Jordan", "address": "", "CONTINENT": "Asia", "map_num": 51 }, "geometry": { "type": "Point", "coordinates": [ 36.51, 31.24 ] } },
{ "type": "Feature", "properties": { "X.1": "150", "X": "168", "num": "94", "text": "Jordan. Glass production in Khirbet edh-Dharih. Ian Freestone with Yarmouk University.", "loc": "Jordan", "address": "", "CONTINENT": "Asia", "map_num": 52 }, "geometry": { "type": "Point", "coordinates": [ 36.51, 31.24 ] } },
{ "type": "Feature", "properties": { "X.1": "151", "X": "169", "num": "95", "text": "Jordan. Kharaneh IV. Epipalaeolithic Excavations. Louise Martin with University of California (Berkeley).", "loc": "Jordan", "address": "", "CONTINENT": "Asia", "map_num": 53 }, "geometry": { "type": "Point", "coordinates": [ 36.51, 31.24 ] } },
{ "type": "Feature", "properties": { "X.1": "152", "X": "170", "num": "96", "text": "Jordan. Azraq Project. Epipalaeolithic- Neolithic Excavations. Andrew Garrard, Sue Colledge, Louise Martin and Katherine (Karen) Wright with Universities of Liverpool, Belfast, Davis California; and CNRS, France.", "loc": "Jordan", "address": "", "CONTINENT": "Asia", "map_num": 54 }, "geometry": { "type": "Point", "coordinates": [ 36.51, 31.24 ] } },
{ "type": "Feature", "properties": { "X.1": "153", "X": "171", "num": "97", "text": "Jordan. Ain Ghazal. Kathryn Tubb with British Museum.", "loc": "Jordan", "address": "", "CONTINENT": "Asia", "map_num": 55 }, "geometry": { "type": "Point", "coordinates": [ 36.51, 31.24 ] } },
{ "type": "Feature", "properties": { "X.1": "154", "X": "172", "num": "98", "text": "Jordan. Talbiyeh and other Palestinian Refugee Camps in Jordan. Beverley Butler with Petra University, Amman.", "loc": "Jordan", "address": "", "CONTINENT": "Asia", "map_num": 56 }, "geometry": { "type": "Point", "coordinates": [ 36.51, 31.24 ] } },
{ "type": "Feature", "properties": { "X.1": "159", "X": "178", "num": "104", "text": "Iraq, Rania Plain. Girdi Bazar Project. Mark Altaweel with University Munich.", "loc": "Iraq, Rania Plain", "address": "ranya, iraq", "CONTINENT": "Asia", "map_num": 57 }, "geometry": { "type": "Point", "coordinates": [ 44.8855495, 36.2390965 ] } },
{ "type": "Feature", "properties": { "X.1": "160", "X": "179", "num": "105", "text": "Iraq, Nimrud. The Ivories from Nimrud Volume VIII. Stuart Laidlaw, Georgina Herrmann, Helena Coffey.", "loc": "Iraq, Nimrud", "address": "", "CONTINENT": "Asia", "map_num": 58 }, "geometry": { "type": "Point", "coordinates": [ 43.328889, 36.098056 ] } },
{ "type": "Feature", "properties": { "X.1": "161", "X": "180", "num": "106", "text": "Iraqi Kurdistan. Later Prehistory of the Shahrizor Plain. David Wengrow with Directorate of Antiquities, Suleymaniyah Province, and UCL Qatar.", "loc": "Iraqi Kurdistan", "address": "kurdistan region, iraq", "CONTINENT": "Asia", "map_num": 59 }, "geometry": { "type": "Point", "coordinates": [ 44.3871953, 36.4103395 ] } },
{ "type": "Feature", "properties": { "X.1": "55", "X": "67", "num": "3", "text": "England. Stability of Glass in English Heritage Collections. Antanas Melinis and Ian Freestone with English Heritage.", "loc": "England", "address": "england, uk", "CONTINENT": "Europe", "map_num": 64 }, "geometry": { "type": "Point", "coordinates": [ -1.1743197, 52.3555177 ] } },
{ "type": "Feature", "properties": { "X.1": "56", "X": "68", "num": "4", "text": "England. Great Bedwyn Research Project. Stuart Brookes and Andrew Reynolds.", "loc": "England", "address": "england, uk", "CONTINENT": "Europe", "map_num": 65 }, "geometry": { "type": "Point", "coordinates": [ -1.1743197, 52.3555177 ] } },
{ "type": "Feature", "properties": { "X.1": "57", "X": "69", "num": "5", "text": "England, Devon. Buckfast. Andrew Reynolds with Newcastle University.", "loc": "England, Devon", "address": "devon, uk", "CONTINENT": "Europe", "map_num": 66 }, "geometry": { "type": "Point", "coordinates": [ -3.530875, 50.7155591 ] } },
{ "type": "Feature", "properties": { "X.1": "58", "X": "70", "num": "6", "text": "England, Boxgrove. Mark Roberts, Simon Parfitt and Matt Pope.", "loc": "England, Boxgrove", "address": "boxgrove, chichester po18, uk", "CONTINENT": "Europe", "map_num": 67 }, "geometry": { "type": "Point", "coordinates": [ -0.7126017, 50.859304 ] } },
{ "type": "Feature", "properties": { "X.1": "60", "X": "72", "num": "8", "text": "England, Hampshire. Chilton Candover. Tim Schadla-Hall and colleagues.", "loc": "England, Hampshire", "address": "hampshire, uk", "CONTINENT": "Europe", "map_num": 68 }, "geometry": { "type": "Point", "coordinates": [ -1.3080629, 51.0576948 ] } },
{ "type": "Feature", "properties": { "X.1": "62", "X": "74", "num": "10", "text": "Jersey, Les Varines. Ed Blinkhorn, Matt Pope and Beccy Scott.", "loc": "Jersey, Les Varines", "address": "les varines, jersey je2, jersey", "CONTINENT": "Europe", "map_num": 69 }, "geometry": { "type": "Point", "coordinates": [ -2.0835934, 49.1868256 ] } },
{ "type": "Feature", "properties": { "X.1": "63", "X": "75", "num": "11", "text": "England, West Sussex. Bow Hill Project, The Slindon Bottom Project, The Downley Project, The Goodwood Estate Monument Survey Mark Roberts and Robert Kaleta.", "loc": "England, West Sussex", "address": "west sussex, uk", "CONTINENT": "Europe", "map_num": 70 }, "geometry": { "type": "Point", "coordinates": [ -0.4617075, 50.9280143 ] } },
{ "type": "Feature", "properties": { "X.1": "64", "X": "76", "num": "12", "text": "England, Cheshire. Blackden Project. Mark Roberts.", "loc": "England, Cheshire", "address": "cheshire, uk", "CONTINENT": "Europe", "map_num": 71 }, "geometry": { "type": "Point", "coordinates": [ -2.6103158, 53.2326344 ] } },
{ "type": "Feature", "properties": { "X.1": "65", "X": "77", "num": "13", "text": "England, Sussex and Hampshire Coastal Plain. The Exotic Rock Project. Mark Roberts.", "loc": "England, Sussex and Hampshire Coastal Plain", "address": "hampshire, uk", "CONTINENT": "Europe", "map_num": 72 }, "geometry": { "type": "Point", "coordinates": [ -1.3080629, 51.0576948 ] } },
{ "type": "Feature", "properties": { "X.1": "67", "X": "79", "num": "15", "text": "England. Guildford, Surrey, Kingsmead Quarry (Horton), Middlesex, and Farndon fields, Nottinghamshire. Richard MacPhail with Oxford Archaeology, Oxford University, Wessex Archaeology and Nottingham County Council.", "loc": "England", "address": "england, uk", "CONTINENT": "Europe", "map_num": 73 }, "geometry": { "type": "Point", "coordinates": [ -1.1743197, 52.3555177 ] } },
{ "type": "Feature", "properties": { "X.1": "68", "X": "80", "num": "16", "text": "England, Huntington, Cambridgeshire. Late Roman dark earth (Headland-MOLA Infrastructure). Richard Mac Phail.", "loc": "England, Huntington, Cambridgeshire", "address": "huntingdon, uk", "CONTINENT": "Europe", "map_num": 74 }, "geometry": { "type": "Point", "coordinates": [ -0.182552, 52.33146 ] } },
{ "type": "Feature", "properties": { "X.1": "69", "X": "81", "num": "17", "text": "England, Clandon Park. Hinemihi Maori Meeting House: People-based Conservation. Dean Sully with Ngäti Ragana; Ngäti Hinemihi; New Zealand Historic Places Trust; National Trust; and ICCROM.", "loc": "England, Clandon Park", "address": "west clandon, guildford gu4 7rq, uk", "CONTINENT": "Europe", "map_num": 75 }, "geometry": { "type": "Point", "coordinates": [ -0.5087918, 51.2506636 ] } },
{ "type": "Feature", "properties": { "X.1": "70", "X": "82", "num": "18", "text": "England. The Portable Antiquities Scheme Database as a Tool for Archaeological Research. Roger Bland with Katherine Robbins.", "loc": "England", "address": "england, uk", "CONTINENT": "Europe", "map_num": 76 }, "geometry": { "type": "Point", "coordinates": [ -1.1743197, 52.3555177 ] } },
{ "type": "Feature", "properties": { "X.1": "71", "X": "83", "num": "19", "text": "England, West Sussex. Highdown, West Sussex Late Roman\/Early Anglo-Saxon cemetery. Sue Harrington in collaboration with James Sainsbury, Worthing Museum, with support from Archaeology South East", "loc": "England, West Sussex", "address": "west sussex, uk", "CONTINENT": "Europe", "map_num": 77 }, "geometry": { "type": "Point", "coordinates": [ -0.4617075, 50.9280143 ] } },
{ "type": "Feature", "properties": { "X.1": "72", "X": "84", "num": "20", "text": "England, Northamptonshire. The sculpted and architectural stonework from Stanwick Roman villa, Northamptonshire. Martin Henig with Penny Coombe and Kevin Hayward, with Historic England [Vicky Crosby, Andrew Lowerre, David Neal, and Sarah Paynter]", "loc": "England, Northamptonshire", "address": "northamptonshire, uk", "CONTINENT": "Europe", "map_num": 78 }, "geometry": { "type": "Point", "coordinates": [ -0.8755515, 52.2729944 ] } },
{ "type": "Feature", "properties": { "X.1": "73", "X": "85", "num": "21", "text": "England, Lincoln. Metalwork and Metalworking in Viking Age Lincoln. Justine Bayley with Institute of Archaeology, Oxford.", "loc": "England, Lincoln", "address": "lincoln, uk", "CONTINENT": "Europe", "map_num": 79 }, "geometry": { "type": "Point", "coordinates": [ -0.540579, 53.230688 ] } },
{ "type": "Feature", "properties": { "X.1": "74", "X": "86", "num": "22", "text": "England, Prittlewell. The Princely Burial. Harriet White, Justine Bayley with MoLA.", "loc": "England, Prittlewell", "address": "prittlewell, westcliff-on-sea, southend-on-sea ss2, uk", "CONTINENT": "Europe", "map_num": 80 }, "geometry": { "type": "Point", "coordinates": [ 0.7072254, 51.5487013 ] } },
{ "type": "Feature", "properties": { "X.1": "75", "X": "87", "num": "23", "text": "England, Chichester. Romanisation of Iron Age Precious Metals. Justine Bayley.", "loc": "England, Chichester", "address": "chichester, uk", "CONTINENT": "Europe", "map_num": 81 }, "geometry": { "type": "Point", "coordinates": [ -0.774936, 50.83761 ] } },
{ "type": "Feature", "properties": { "X.1": "76", "X": "88", "num": "24", "text": "England. Medieval Music Wire. Justine Bayley.", "loc": "England", "address": "england, uk", "CONTINENT": "Europe", "map_num": 82 }, "geometry": { "type": "Point", "coordinates": [ -1.1743197, 52.3555177 ] } },
{ "type": "Feature", "properties": { "X.1": "77", "X": "89", "num": "25", "text": "England. Roman and Medieval Silver Production and Refining. Justine Bayley.", "loc": "England", "address": "england, uk", "CONTINENT": "Europe", "map_num": 83 }, "geometry": { "type": "Point", "coordinates": [ -1.1743197, 52.3555177 ] } },
{ "type": "Feature", "properties": { "X.1": "78", "X": "90", "num": "26", "text": "England and Wales. Stones of Stonehenge. Mike Parker Pearson with Universities of Bournemouth and Southampton.", "loc": "England and Wales", "address": "lower st mary's st, newport sa42 0ts, uk", "CONTINENT": "Europe", "map_num": 84 }, "geometry": { "type": "Point", "coordinates": [ -4.7252854, 51.965476 ] } },
{ "type": "Feature", "properties": { "X.1": "79", "X": "91", "num": "27", "text": "England, Hertfordshire (and neighbouring counties). Geophysical surveys at Verulamium and other sites. The Community Archaeology Geophysics Group led by Kris Lockyear and Ellen Shlasko.", "loc": "England, Hertfordshire (and neighbouring counties)", "address": "hertfordshire, uk", "CONTINENT": "Europe", "map_num": 85 }, "geometry": { "type": "Point", "coordinates": [ -0.2376744, 51.8097823 ] } },
{ "type": "Feature", "properties": { "X.1": "80", "X": "92", "num": "28", "text": "England, Cambridgeshire. Soham. Iron Age and Roman agricultural landscape and Early Anglo-Saxon cemetery. Lucy Sibun (Archaeology South-East, ASE).", "loc": "England, Cambridgeshire", "address": "cambridgeshire, uk", "CONTINENT": "Europe", "map_num": 86 }, "geometry": { "type": "Point", "coordinates": [ 0.1218195, 52.2052973 ] } },
{ "type": "Feature", "properties": { "X.1": "81", "X": "93", "num": "29", "text": "England, East Sussex. Horam. Post-medieval iron-ore quarry site (Simon Stevens); Ringmer. Post-medieval tile kiln site (Simon Stevens); Pocock’s Field, Eastbourne. Prehistoric, Roman, Anglo-Saxon remains (Giles Dawkes); Seaford Head 6th Form Centre. Mesolithic to Bronze Age flint-working site (Karine Le Hégarat and Ed Blinkhorn); Brighton Dome, Brighton. Early 19th century historic building recording and Quaker burial ground (Michael Shapland and Garrett Sheehan); Excavations in Lewes. Iron Age, medieval and post-medieval occupation (Dan Swift); Rampion Onshore Cable Route. Prehistoric and Anglo-Saxon development (Garrett Sheehan).", "loc": "England, East Sussex", "address": "east sussex, uk", "CONTINENT": "Europe", "map_num": 87 }, "geometry": { "type": "Point", "coordinates": [ 0.2494166, 50.9085955 ] } },
{ "type": "Feature", "properties": { "X.1": "82", "X": "94", "num": "30", "text": "England, Essex. Multiple projects conducted by ASE. Harlow Enterprise Park. Roman Road. (Trevor Ennis); Alresford. Middle Iron Age field system and medieval rural settlement and field system (Samara King); Basildon. Late Iron Age\/Early Roman cremation burial site and Early Saxon occupation site (James Alexander); Cressing. Late Iron Age\/Roman farmstead and Medieval field system (Samara King); Rochford. Middle\/Late Bronze Age field system, medieval farmstead and field system (Paulo Clemente); Harlow. Bronze Age, Iron Age, Roman and medieval settlement and agricultural activity (Trevor Ennis).", "loc": "England, Essex", "address": "essex, uk", "CONTINENT": "Europe", "map_num": 88 }, "geometry": { "type": "Point", "coordinates": [ 0.4856781, 51.5742447 ] } },
{ "type": "Feature", "properties": { "X.1": "83", "X": "95", "num": "31", "text": "England, Surrey. Walton Court, Walton on Thames. Historic Build recording (Katya Harrow, ASE).", "loc": "England, Surrey", "address": "surrey, uk", "CONTINENT": "Europe", "map_num": 89 }, "geometry": { "type": "Point", "coordinates": [ -0.5599501, 51.3147593 ] } },
{ "type": "Feature", "properties": { "X.1": "84", "X": "96", "num": "32", "text": "England, Kent. Multiple projects conducted by ASE. Bapchild. Multi-period landscape excavation, Neolithic enclosure and Iron Age occupation (Giles Dawkes and Sophie Austin); Scotney Castle, Lamberhurst (Michael Shapland).", "loc": "England, Kent", "address": "kent, uk", "CONTINENT": "Europe", "map_num": 90 }, "geometry": { "type": "Point", "coordinates": [ 0.5217254, 51.2787075 ] } },
{ "type": "Feature", "properties": { "X.1": "85", "X": "97", "num": "33", "text": "England, Suffolk. Multiple projects conducted by ASE. Kings Warren, Red Lodge. Early Neolithic, Early Bronze Age, Iron Age, and Early Roman (Angus Foreshaw); Leiston. Late Neolithic\/Early Bronze Age monument, Bronze Age trackway and Roman field system (Samara King); Wetherden Road, Elmswell. Early Roman kiln and Saxon occupation (Kieron Heard); Chilton Leys, Stowmarket. Bronze Age, Roman and early medieval agricultural land use, and medieval moated roadside enclosures (Kieron Head); Moreton Hall\/Lark Grange, Bury St. Edmunds. Middle Iron Age and medieval boundary ditches and pits and 20th century airfield (James Alexander, Craig Carvey, Angus Forshaw); Henley Gate, Ipswich. Early Iron Age occupation site, early Roman boundaries and enclosure and medieval field system (Angus Forshaw); Ferry Road, Felixstowe. Early Neolithic occupation, Early Iron Age ditched enclosure, late Iron Age field system, and Saxo-Norman settlement activity (Paulo Clemente).", "loc": "England, Suffolk", "address": "suffolk, uk", "CONTINENT": "Europe", "map_num": 91 }, "geometry": { "type": "Point", "coordinates": [ 0.9707801, 52.1872472 ] } },
{ "type": "Feature", "properties": { "X.1": "86", "X": "98", "num": "34", "text": "England, West Sussex. Multiple projects conducted by ASE. Madgwick Lane, Chichester. Early Bronze Age cremation cemetery, Late Bronze Age-Iron Age hilltop enclosure (Hayley Nicholls); Chichester pipeline (Garrett Sheehan); Sussex House, Crawley. Medieval suburban and urban site (Kathryn Grant); Billinghurst. Middle Iron Age- Roman settlement (Hayley Nicholls).", "loc": "England, West Sussex", "address": "west sussex, uk", "CONTINENT": "Europe", "map_num": 92 }, "geometry": { "type": "Point", "coordinates": [ -0.4617075, 50.9280143 ] } },
{ "type": "Feature", "properties": { "X.1": "87", "X": "99", "num": "35", "text": "Wales, Caerleon. Priory Field. Andrew Gardner with Cardiff University; Cadw, National Roman Legion Museum, Caerleon; National Museum Wales, Cardiff.", "loc": "Wales, Caerleon", "address": "caerleon, newport, uk", "CONTINENT": "Europe", "map_num": 93 }, "geometry": { "type": "Point", "coordinates": [ -2.9562689, 51.610283 ] } },
{ "type": "Feature", "properties": { "X.1": "88", "X": "100", "num": "36", "text": "Scotland, South Uist, Howmore. Andrew Reynolds.", "loc": "Scotland, South Uist, Howmore", "address": "homore, isle of south uist hs8 5sh, uk", "CONTINENT": "Europe", "map_num": 94 }, "geometry": { "type": "Point", "coordinates": [ -7.384677, 57.302065 ] } },
{ "type": "Feature", "properties": { "X.1": "89", "X": "101", "num": "37", "text": "Britain. Composition, Corrosion and Production of Medieval Window Glass. Laura Adlington and Ian Freestone with York Glaziers Trust and Royal Holloway University of London.", "loc": "Britain", "address": "united kingdom", "CONTINENT": "Europe", "map_num": 95 }, "geometry": { "type": "Point", "coordinates": [ -3.435973, 55.378051 ] } },
{ "type": "Feature", "properties": { "X.1": "90", "X": "102", "num": "38", "text": "Britain. Roman metalworking ceramics. Carlotta Gardner and Ian Freestone with MoLA and Demokritos, Athens.", "loc": "Britain", "address": "united kingdom", "CONTINENT": "Europe", "map_num": 96 }, "geometry": { "type": "Point", "coordinates": [ -3.435973, 55.378051 ] } },
{ "type": "Feature", "properties": { "X.1": "91", "X": "103", "num": "39", "text": "Britain. Technology of Roman cameo glass. Ian Freestone with the British Museum and The Glassmakers.", "loc": "Britain", "address": "united kingdom", "CONTINENT": "Europe", "map_num": 97 }, "geometry": { "type": "Point", "coordinates": [ -3.435973, 55.378051 ] } },
{ "type": "Feature", "properties": { "X.1": "92", "X": "104", "num": "40", "text": "United Kingdom. Arts and Humanities Research Council Heritage Priority Area Leadership Fellowship. Rodney Harrison, Hana Morel, Susan Sandford-Smith, Colin Sterling, Hana Williams.", "loc": "United Kingdom", "address": "united kingdom", "CONTINENT": "Europe", "map_num": 98 }, "geometry": { "type": "Point", "coordinates": [ -3.435973, 55.378051 ] } },
{ "type": "Feature", "properties": { "X.1": "93", "X": "105", "num": "41", "text": "United Kingdom. MicroPasts. Andrew Bevan, Chiara Bonacchi, Daniel Pett, Jennifer Wexler with British Museum, and other museums, universities and archives in Europe, Asia and Northern America.", "loc": "United Kingdom", "address": "united kingdom", "CONTINENT": "Europe", "map_num": 99 }, "geometry": { "type": "Point", "coordinates": [ -3.435973, 55.378051 ] } },
{ "type": "Feature", "properties": { "X.1": "94", "X": "106", "num": "42", "text": "Ireland. Cultivating Societies: Assessing the Evidence for Agriculture in Neolithic Ireland. Sue Colledge with Queen’s University, Belfast and Institute of Archaeology, Oxford.", "loc": "Ireland", "address": "ireland", "CONTINENT": "Europe", "map_num": 100 }, "geometry": { "type": "Point", "coordinates": [ -7.6920536, 53.1423672 ] } },
{ "type": "Feature", "properties": { "X.1": "95", "X": "107", "num": "43", "text": "Ireland, Dublin. Metalworking in Viking Dublin. Justine Bayley with National Museum of Ireland.", "loc": "Ireland, Dublin", "address": "dublin, ireland", "CONTINENT": "Europe", "map_num": 101 }, "geometry": { "type": "Point", "coordinates": [ -6.2603097, 53.3498053 ] } },
{ "type": "Feature", "properties": { "X.1": "96", "X": "108", "num": "1", "text": "Thames Discovery Programme. Nathalie Cohen, Gustav Milne and Eliott Wragg.", "loc": "Thames Discovery Programme", "address": "river thames, united kingdom", "CONTINENT": "Europe", "map_num": 102 }, "geometry": { "type": "Point", "coordinates": [ -0.6943111, 51.5631569 ] } },
{ "type": "Feature", "properties": { "X.1": "98", "X": "110", "num": "3", "text": "Petrie Museum, UCL. Collections in Exile, Persons in Exile: Rethinking the Petrie Palestinian Collection. Beverley Butler with UCL; Tawfik Canaan Collection; and Birzeit University.", "loc": "Petrie Museum, UCL", "address": "malet pl, bloomsbury, london wc1e 6bt, uk", "CONTINENT": "Europe", "map_num": 103 }, "geometry": { "type": "Point", "coordinates": [ -0.1330008, 51.5235877 ] } },
{ "type": "Feature", "properties": { "X.1": "101", "X": "113", "num": "6", "text": "Tower of London. The Tudor Mint. Justine Bayley and Harriet White.", "loc": "Tower of London", "address": "st katharine's & wapping, london ec3n 4ab, uk", "CONTINENT": "Europe", "map_num": 104 }, "geometry": { "type": "Point", "coordinates": [ -0.0759493, 51.5081124 ] } },
{ "type": "Feature", "properties": { "X.1": "102", "X": "115", "num": "8", "text": "Islington. Eithorne Park & Islington Community Archaeology Project. Charlotte Frearson with Islington Museum and Council.", "loc": "Islington", "address": "london borough of islington, london, uk", "CONTINENT": "Europe", "map_num": 105 }, "geometry": { "type": "Point", "coordinates": [ -0.1058058, 51.5465063 ] } },
{ "type": "Feature", "properties": { "X.1": "103", "X": "116", "num": "9", "text": "London School of Economics. Mid to late Saxon to post-medieval urban archaeology. Sarah Ritchie (ASE).", "loc": "London School of Economics", "address": "houghton st, holborn, london wc2a 2ae, uk", "CONTINENT": "Europe", "map_num": 106 }, "geometry": { "type": "Point", "coordinates": [ -0.1164513, 51.5144388 ] } },
{ "type": "Feature", "properties": { "X.1": "104", "X": "117", "num": "10", "text": "Wild Rents, Bermondsey, London. An 18th-19th century tannery. Hayley Nicholls (ASE).", "loc": "Wild Rents, Bermondsey, London", "address": "wild's rents, bermondsey, london se1, uk", "CONTINENT": "Europe", "map_num": 107 }, "geometry": { "type": "Point", "coordinates": [ -0.0844774, 51.4979062 ] } },
{ "type": "Feature", "properties": { "X.1": "108", "X": "122", "num": "48", "text": "Belgium. FENESTRA. 800 years of window glass. Ian Freestone with VU Brussels.", "loc": "Belgium", "address": "belgium", "CONTINENT": "Europe", "map_num": 108 }, "geometry": { "type": "Point", "coordinates": [ 4.469936, 50.503887 ] } },
{ "type": "Feature", "properties": { "X.1": "109", "X": "123", "num": "49", "text": "Norway, Oslo (and Oslo area; medieval City, and Oslo Harbour sediments and shipwrecks). Løten, Hedmark (Iron Age upland cairn fields and iron working); Avaldsnes, Karmøy, Rogaland (Iron Age and medieval royal manor); Trondheim and north-west coast (Mesolithic to Iron Age settlements). Richard Macphail with Culture History Museum and Oslo University, The Norwegian Institute for Cultural Heritage Research, and the Norwegian University of Science and Technology.", "loc": "Norway, Oslo (and Oslo area; medieval City, and Oslo Harbour sediments and shipwrecks)", "address": "oslo, norway", "CONTINENT": "Europe", "map_num": 109 }, "geometry": { "type": "Point", "coordinates": [ 10.7522454, 59.9138688 ] } },
{ "type": "Feature", "properties": { "X.1": "110", "X": "124", "num": "50", "text": "Denmark, Coastal Jutland. Bronze Age burial mound (Østfyns Museer). Richard McPhail.", "loc": "Denmark, Coastal Jutland", "address": "jutland, 6040 egtved, denmark", "CONTINENT": "Europe", "map_num": 110 }, "geometry": { "type": "Point", "coordinates": [ 9.20105, 55.62955 ] } },
{ "type": "Feature", "properties": { "X.1": "112", "X": "126", "num": "52", "text": "Spain. The Basque Country. Vitoria, Aistra. Andrew Reynolds with University of the Basque Country.", "loc": "Spain", "address": "spain", "CONTINENT": "Europe", "map_num": 111 }, "geometry": { "type": "Point", "coordinates": [ -3.74922, 40.463667 ] } },
{ "type": "Feature", "properties": { "X.1": "113", "X": "127", "num": "53", "text": "Spain, Córdoba: Heritage of Historic Cities and Multi-culturalism. Beverley Butler with Cordoba University.", "loc": "Spain, Córdoba: Heritage of Historic Cities and Multi-culturalism", "address": "córdoba, spain", "CONTINENT": "Europe", "map_num": 112 }, "geometry": { "type": "Point", "coordinates": [ -4.7793835, 37.8881751 ] } },
{ "type": "Feature", "properties": { "X.1": "114", "X": "128", "num": "54", "text": "Spain, Buendia Rockshelter. Ignacio de la Torre with Centro Nacional de Investigación sobre la Evolución Humana, Spain.", "loc": "Spain, Buendia Rockshelter", "address": "", "CONTINENT": "Europe", "map_num": 113 }, "geometry": { "type": "Point", "coordinates": [ -2.497331, 40.417881 ] } },
{ "type": "Feature", "properties": { "X.1": "115", "X": "129", "num": "55", "text": "Spain, Cova Gran and Roca dels Bous. Ignacio de la Torre with Universidad Autonoma de Barcelona, Spain; and Centro Nacional de Investigación sobre la Evolución Humana.", "loc": "Spain, Cova Gran and Roca dels Bous", "address": "unnamed rd,, 25612 os de balaguer, lleida, spain", "CONTINENT": "Europe", "map_num": 114 }, "geometry": { "type": "Point", "coordinates": [ 0.8110618, 41.9258917 ] } },
{ "type": "Feature", "properties": { "X.1": "116", "X": "130", "num": "56", "text": "Spain, Arganzón castle, Burgos. Juan Antonio Quirós.", "loc": "Spain, Arganzón castle, Burgos", "address": "09294 la puebla de arganzón, burgos, spain", "CONTINENT": "Europe", "map_num": 115 }, "geometry": { "type": "Point", "coordinates": [ -2.8190313, 42.7885791 ] } },
{ "type": "Feature", "properties": { "X.1": "117", "X": "131", "num": "57", "text": "Spain, Lantarón castle, Álava. Juan Antonio Quirós.", "loc": "Spain, Lantarón castle, Álava", "address": "01212 zambrana, álava, spain", "CONTINENT": "Europe", "map_num": 116 }, "geometry": { "type": "Point", "coordinates": [ -2.8336449, 42.6703698 ] } },
{ "type": "Feature", "properties": { "X.1": "118", "X": "132", "num": "58", "text": "Spain, Vera Valley. VERASUR, Discovering the Long-Term Human Occupation in the West Mediterranean: Archaeological Survey in the Vera Depression (Almeria, Spain). Borja Legarra Herrero with Mercedes Murillo Barroso, University of Granada, Spain.", "loc": "Spain, Vera Valley", "address": "la vera, cáceres, spain", "CONTINENT": "Europe", "map_num": 117 }, "geometry": { "type": "Point", "coordinates": [ -5.6878736, 40.1285948 ] } },
{ "type": "Feature", "properties": { "X.1": "119", "X": "133", "num": "59", "text": "Spain, Villaneva de Santo Adriano. Archaeology of the commons in Asturias, Spain. Gabriel Moshenska and Jesús Fernández Fernández (LaPonte Ecomuseum).", "loc": "Spain, Villaneva de Santo Adriano", "address": "33115 villanueva, asturias, spain", "CONTINENT": "Europe", "map_num": 118 }, "geometry": { "type": "Point", "coordinates": [ -6.001129, 43.2722222 ] } },
{ "type": "Feature", "properties": { "X.1": "120", "X": "134", "num": "60", "text": "Spain and Portugal. Multiple locations. IdaVe Project, Village of Idanha-a-Velha, Beixa Baja; Los Hitos, Arisgotas. Castilla La-Mancha. Urban landscape of power in the Iberian Peninsula from Late Antiquity to the Early Middle Ages (ULP.PILAEMA). Isabel Sánchez Ramos, Andrew Reynolds, with Jorge Morín de Pablos (Audema Madrid), Antonio Malalana (Universidad San Pablo Ceu, Madrid) and Jose Ramón González de la Cal (Universidad de Castilla-La Mancha).", "loc": "Spain and Portugal", "address": "calle de claudio coello, 65, 28001 madrid, spain", "CONTINENT": "Europe", "map_num": 119 }, "geometry": { "type": "Point", "coordinates": [ -3.6863725, 40.4283222 ] } },
{ "type": "Feature", "properties": { "X.1": "121", "X": "135", "num": "61", "text": "Portugal, Moura. Castelo Velho de Safara. Mariana Nabais.", "loc": "Portugal, Moura", "address": "moura, portugal", "CONTINENT": "Europe", "map_num": 120 }, "geometry": { "type": "Point", "coordinates": [ -7.3084571, 38.1314891 ] } },
{ "type": "Feature", "properties": { "X.1": "122", "X": "137", "num": "63", "text": "Croatia. Composition, Technology and Origins of Iron Age Beads in Croatia. Ana Franjic and Ian Freestone, with Lower Carniola Museum, Zagreb Archaeological Museum, Muzej Slavonije, Šibenik City Museum, University of Zagreb, University of Zadar, Zadar Museum of Ancient Glass, Arheološki Muzej Istre, Zemaljski Muzej, Bosne I Hercegovine, Gradski Muzej Karlovac, Gradski Muzej Virovitica, Vinkovci City Museum, Zagreb Institute of Archaeology, ETH Zurich and Aarhus University.", "loc": "Croatia", "address": "croatia", "CONTINENT": "Europe", "map_num": 121 }, "geometry": { "type": "Point", "coordinates": [ 15.2000001, 45.1 ] } },
{ "type": "Feature", "properties": { "X.1": "123", "X": "138", "num": "64", "text": "Croatia, Dalmatia. Economy of Pre-Roman Adriatic Communities: amphora production and trade patterns in a changing world (EPRAC). Maja Mise and Patrick Quinn, with Archaeological Museum Split, Municipal Museum Kastela, Citi Museum Stari Grad, Departments of Underwater Archaeology at University of Zadar and Croatian Conservation Institute, and Missouri University Research Reactor.", "loc": "Croatia, Dalmatia", "address": "split-dalmatia county, croatia", "CONTINENT": "Europe", "map_num": 122 }, "geometry": { "type": "Point", "coordinates": [ 16.8178377, 43.5240328 ] } },
{ "type": "Feature", "properties": { "X.1": "124", "X": "139", "num": "65", "text": "Romania, Noviodunum, Tulcea. Kris Lockyear with Fitzwilliam Museum, Cambridge; and Southampton University.", "loc": "Romania, Noviodunum, Tulcea", "address": "tulcea, romania", "CONTINENT": "Europe", "map_num": 123 }, "geometry": { "type": "Point", "coordinates": [ 28.7914439, 45.1716165 ] } },
{ "type": "Feature", "properties": { "X.1": "125", "X": "140", "num": "66", "text": "Romania, Taşnad. Excavation of a Criş Settlement. Ulrike Sommer with Satu Mare Museum.", "loc": "Romania, Taşnad", "address": "tășnad 445300, romania", "CONTINENT": "Europe", "map_num": 124 }, "geometry": { "type": "Point", "coordinates": [ 22.5817433, 47.4783904 ] } },
{ "type": "Feature", "properties": { "X.1": "126", "X": "141", "num": "67", "text": "Ukraine, Nebelivka Tripillia. Geoarchaeological Research at Mega-site. Manuel Arroyo-Kalin with Durham University.", "loc": "Ukraine, Nebelivka Tripillia", "address": "trypillya, kyiv oblast, ukraine, 08722", "CONTINENT": "Europe", "map_num": 125 }, "geometry": { "type": "Point", "coordinates": [ 30.7634444, 50.1191325 ] } },
{ "type": "Feature", "properties": { "X.1": "127", "X": "142", "num": "68", "text": "Serbia, Pločnik, near Prokuplje. Vinča culture site. Miljana Radivojevic with the Homeland Museum in Toplica (Julka Kuzmanovic Cvetkovic).", "loc": "Serbia, Pločnik, near Prokuplje", "address": "pločnik, serbia", "CONTINENT": "Europe", "map_num": 126 }, "geometry": { "type": "Point", "coordinates": [ 21.3443106, 43.2040013 ] } },
{ "type": "Feature", "properties": { "X.1": "130", "X": "145", "num": "71", "text": "Italy, Marche. Upper Esino Valley Survey. Corinna Riva.", "loc": "Italy, Marche", "address": "marche, italy", "CONTINENT": "Europe", "map_num": 128 }, "geometry": { "type": "Point", "coordinates": [ 12.989615, 43.5058744 ] } },
{ "type": "Feature", "properties": { "X.1": "131", "X": "146", "num": "72", "text": "Italy, Vulci. The ports of Etruscan Vulci: understanding the connectivity of a major ancient Mediterranean city. Corinna Riva (coordinator), Kris Lockyear, with Soprintendenza archeologia, belle arti e paesaggio per l’area metropolitana di Roma, la provincia di Viterbo e l’Etruria meridionale, Parco Archeologico di Vulci and the British School at Rome.", "loc": "Italy, Vulci", "address": "vulci, 01014 montalto di castro vt, italy", "CONTINENT": "Europe", "map_num": 129 }, "geometry": { "type": "Point", "coordinates": [ 11.6310953, 42.4241163 ] } },
{ "type": "Feature", "properties": { "X.1": "133", "X": "148", "num": "74", "text": "Greece, Astypalaia, Dodecanese. Cemeteries on the Island of Astypalaia. Simon Hillson.", "loc": "Greece, Astypalaia, Dodecanese", "address": "astypalaia, greece", "CONTINENT": "Europe", "map_num": 130 }, "geometry": { "type": "Point", "coordinates": [ 26.3131356, 36.5389811 ] } },
{ "type": "Feature", "properties": { "X.1": "134", "X": "150", "num": "76", "text": "Greece, Crete. The Knossos Urban Landscape Project. Todd Whitelaw with British School at Athens and Herakleion Ephoreia of the Greek Archaeological Service.", "loc": "Greece, Crete", "address": "crete, greece", "CONTINENT": "Europe", "map_num": 131 }, "geometry": { "type": "Point", "coordinates": [ 24.8092691, 35.240117 ] } },
{ "type": "Feature", "properties": { "X.1": "135", "X": "151", "num": "77", "text": "Greece, Neo Monastiri\/Phthiotis. Koutroulou Magoula Archaeology Project: from the Neolithic to the present. Vasilis Tsamis with British School at Athens, Yannis Hamilakis: Brown University and Nina Kyparissi-Apostolika: Greek Archaeological Service.", "loc": "Greece, Neo Monastiri\/Phthiotis", "address": "neo monastiri fthiotidas 350 10, greece", "CONTINENT": "Europe", "map_num": 132 }, "geometry": { "type": "Point", "coordinates": [ 22.2741094, 39.2408251 ] } },
{ "type": "Feature", "properties": { "X.1": "136", "X": "153", "num": "79", "text": "Greece. Crete. Minoan Gold: An Archaeometallurgical Analysis of Crete’s Place in the East Mediterranean World. Borja Legarra Herrero, with Marcos Martinón-Torres, University of Cambridge.", "loc": "Greece", "address": "greece", "CONTINENT": "Europe", "map_num": 133 }, "geometry": { "type": "Point", "coordinates": [ 21.824312, 39.074208 ] } },
{ "type": "Feature", "properties": { "X.1": "53", "X": "65", "num": "1", "text": "England, Portsmouth. Tudor Warship Mary Rose. Martin Bridge with Mary Rose Trust.", "loc": "England, Portsmouth", "address": "portsmouth, uk", "CONTINENT": null, "map_num": 153 }, "geometry": { "type": "Point", "coordinates": [ -1.0879769, 50.8197675 ] } },
{ "type": "Feature", "properties": { "X.1": "54", "X": "66", "num": "2", "text": "England, Portsmouth. Corrosion of Iron from The Mary Rose. Hayley Simon and Ian Freestone with the Mary Rose Trust and Diamond Light Source.", "loc": "England, Portsmouth", "address": "portsmouth, uk", "CONTINENT": null, "map_num": 154 }, "geometry": { "type": "Point", "coordinates": [ -1.0879769, 50.8197675 ] } },
{ "type": "Feature", "properties": { "X.1": "61", "X": "73", "num": "9", "text": "Jersey, La Cotte de St Brelade. Matt Pope, Beccy Scott and Chris Stringer.", "loc": "Jersey, La Cotte de St Brelade", "address": "jersey", "CONTINENT": null, "map_num": 155 }, "geometry": { "type": "Point", "coordinates": [ -2.1882373, 49.1755631 ] } },
{ "type": "Feature", "properties": { "X.1": "132", "X": "147", "num": "73", "text": "Greece, Antikythera. Antikythera Survey Project. Andrew Bevan with Trent University, Canada; and Greek Archaeological Service.", "loc": "Greece, Antikythera", "address": "antikythera, antikithira, greece", "CONTINENT": null, "map_num": 156 }, "geometry": { "type": "Point", "coordinates": [ 23.3049491, 35.8620412 ] } },
{ "type": "Feature", "properties": { "X.1": "137", "X": "154", "num": "80", "text": "Cyprus, Lapithos. Revisiting and ancient craft in a contested region: the analytical paradigm of prehistoric pottery from Cyprus (ReCyPot). Maria Dikomitou Eliadou, Todd Whitelaw, Agnese Benzonelli, in collaboration with La Trobe University, the University of Cyprus, the Fitch Laboratory, British School at Athens, and the University of Cambridge.", "loc": "Cyprus, Lapithos", "address": "lapta", "CONTINENT": null, "map_num": 157 }, "geometry": { "type": "Point", "coordinates": [ 33.1632665, 35.3364082 ] } }
]
}
