{
"type": "FeatureCollection",
"name": "locs2020_rw",
"crs": { "type": "name", "properties": { "name": "urn:ogc:def:crs:OGC:1.3:CRS84" } },
"features": [
{ "type": "Feature", "properties": { "X.1": "17", "X": "19", "num": "19", "text": "Ethiopia, Mieso. Ignacio de la Torre with Universidad Autonoma de Barcelona; Centro Nacional de Investigación sobre la Evolución Humana, Spain.", "loc": "Ethiopia, Mieso", "address": "mieso, ethiopia", "CONTINENT": "Africa", "map_num": 1 }, "geometry": { "type": "Point", "coordinates": [ 40.7538671, 9.2355505 ] } },
{ "type": "Feature", "properties": { "X.1": "18", "X": "20", "num": "20", "text": "Mali. Segou Project: Sorotomo and the Dodugu (AD 1000–1700). Kevin MacDonald and Nicholas Gestrich, with Malian Institut des Sciences Humaines.", "loc": "Mali", "address": "mali", "CONTINENT": "Africa", "map_num": 2 }, "geometry": { "type": "Point", "coordinates": [ -3.996166, 17.570692 ] } },
{ "type": "Feature", "properties": { "X.1": "19", "X": "21", "num": "21", "text": "Sudan, Jebel Moya. Michael Brass, Dorian Fuller, Chris Stevens.", "loc": "Sudan, Jebel Moya", "address": "sudan، marsa alam desert, red sea governorate, egypt", "CONTINENT": "Africa", "map_num": 3 }, "geometry": { "type": "Point", "coordinates": [ 33.333, 13.5 ] } },
{ "type": "Feature", "properties": { "X.1": "20", "X": "22", "num": "22", "text": "Sudan, Shalfak. Shalfak Archaeological Mission (SAM). Claudia Naeser and Wolfram Grajetzki.", "loc": "Sudan, Shalfak", "address": "wiki", "CONTINENT": "Africa", "map_num": 4 }, "geometry": { "type": "Point", "coordinates": [ 31.040278, 21.541667 ] } },
{ "type": "Feature", "properties": { "X.1": "21", "X": "23", "num": "23", "text": "Sudan, Mograt Island. Mograt Island Archaeological Mission. Claudia Naeser, with the National Corporation for Antiquities and Museums.", "loc": "Sudan, Mograt Island", "address": "mograt island, sudan", "CONTINENT": "Africa", "map_num": 5 }, "geometry": { "type": "Point", "coordinates": [ 33.25, 19.5 ] } },
{ "type": "Feature", "properties": { "X.1": "22", "X": "24", "num": "24", "text": "Tanzania, Olduvai Gorge. Renata Peters, Ignacio de la Torre (now honorary staff) with University of Wisconsin and Department of Antiquities, Tanzania.", "loc": "Tanzania, Olduvai Gorge", "address": "tanzania", "CONTINENT": "Africa", "map_num": 6 }, "geometry": { "type": "Point", "coordinates": [ 35.3539128, -2.9895714 ] } },
{ "type": "Feature", "properties": { "X.1": "23", "X": "25", "num": "25", "text": "Nigeria, Ile-Ife. Glass and glassmaking in Ile-Ife. Thilo Rehren with Abidemi Babalola, Cambridge University.", "loc": "Nigeria, Ile-Ife", "address": "ife, nigeria", "CONTINENT": "Africa", "map_num": 7 }, "geometry": { "type": "Point", "coordinates": [ 4.5521274, 7.490462 ] } },
{ "type": "Feature", "properties": { "X.1": "24", "X": "26", "num": "26", "text": "Senegal, Kolda region. Upper Casamance Project. Sirio Canós Donnay.", "loc": "Senegal, Kolda region", "address": "kolda region, senegal", "CONTINENT": "Africa", "map_num": 8 }, "geometry": { "type": "Point", "coordinates": [ -14.4723301, 12.949345 ] } },
{ "type": "Feature", "properties": { "X.1": "25", "X": "27", "num": "27", "text": "Senegal, Saint Louis region, Waalo. Oral History, Tumuli, and Archaeology at the Root of Empire (AD 1000 – 1800), Kevin MacDonald and Sirio Canos Donnay (UCL), Ibrahima Thiaw (IFAN-Dakar), Kate Welham (Bournemouth).", "loc": "Senegal, Saint Louis region, Waalo", "address": "saint-louis region, senegal", "CONTINENT": "Africa", "map_num": 9 }, "geometry": { "type": "Point", "coordinates": [ -14.8454619, 16.1949644 ] } },
{ "type": "Feature", "properties": { "X.1": "166", "X": "186", "num": "112", "text": "Egypt and UK. Cairo, Liverpool, Edinburgh. Egypt’s Dispersed Heritage: Views from Egypt. Alice Stevenson, Heba Abd el-Gawad with Mahatat Contemporary Arts, ICOM (Egypt), National Museums Liverpool, and National Museums Scotland (UK).", "loc": "Egypt and UK", "address": "", "CONTINENT": "Africa", "map_num": 10 }, "geometry": { "type": "Point", "coordinates": [ 30.802498, 26.820553 ] } },
{ "type": "Feature", "properties": { "X.1": "167", "X": "187", "num": "113", "text": "Egypt. Origins of Nationhood: a New Chronology for Egyptian State Formation. David Wengrow with Research Laboratory for Archaeology and History of Art, Oxford University.", "loc": "Egypt", "address": "egypt", "CONTINENT": "Africa", "map_num": 11 }, "geometry": { "type": "Point", "coordinates": [ 30.802498, 26.820553 ] } },
{ "type": "Feature", "properties": { "X.1": "168", "X": "188", "num": "114", "text": "Egypt. Decolonising Archaeology: Ethnographies in Egypt. Stephen Quirke with New Hermopolis, Tuna al-Jabal, Minya and Fayoum University.", "loc": "Egypt", "address": "egypt", "CONTINENT": "Africa", "map_num": 12 }, "geometry": { "type": "Point", "coordinates": [ 30.802498, 26.820553 ] } },
{ "type": "Feature", "properties": { "X.1": "169", "X": "189", "num": "115", "text": "Egypt, Faiyum. Gurob Harem Palace Project, Faiyum. Settlement Archaeology at a Royal Town Site. Jan Picton with Petrie Museum UCL; and Universities of Liverpool, Copenhagen.", "loc": "Egypt, Faiyum", "address": "faiyum, qesm al fayoum, faiyum, faiyum governorate, egypt", "CONTINENT": "Africa", "map_num": 13 }, "geometry": { "type": "Point", "coordinates": [ 30.8428497, 29.3084021 ] } },
{ "type": "Feature", "properties": { "X.1": "171", "X": "191", "num": "117", "text": "Egypt. Mit Rahina Field School: Settlement archaeology in Middle Kingdom Memphis. Ana Tavares with David Jeffreys; Ancient Egypt Research Associates; American Research Centre in Egypt; Ministry of State for Antiquities; Egypt Exploration Society; and Cambridge University.", "loc": "Egypt", "address": "egypt", "CONTINENT": "Africa", "map_num": 14 }, "geometry": { "type": "Point", "coordinates": [ 30.802498, 26.820553 ] } },
{ "type": "Feature", "properties": { "X.1": "172", "X": "192", "num": "118", "text": "Libya, Ghadames Archaeological Survey. Corisande Fenwick with University of Leicester.", "loc": "Libya, Ghadames Archaeological Survey", "address": "gadamis, libya", "CONTINENT": "Africa", "map_num": 15 }, "geometry": { "type": "Point", "coordinates": [ 9.4950555, 30.1317637 ] } },
{ "type": "Feature", "properties": { "X.1": "173", "X": "193", "num": "119", "text": "Tunisia, Libya. Training in Action Project. Corisande Fenwick, Gaigysyz Jorayev with Durham University, KCL, Institut National du Patrimoine de Tunisie, Department of Antiquities, Libya.", "loc": "Tunisia, Libya", "address": "", "CONTINENT": "Africa", "map_num": 16 }, "geometry": { "type": "Point", "coordinates": [ 9.537499, 33.886917 ] } },
{ "type": "Feature", "properties": { "X.1": "174", "X": "194", "num": "120", "text": "Tunisia. Early Islamic Glass Workshop from Sabra-al-Mansuriya. Ian Freestone with CNRS, France.", "loc": "Tunisia", "address": "tunisia", "CONTINENT": "Africa", "map_num": 17 }, "geometry": { "type": "Point", "coordinates": [ 9.537499, 33.886917 ] } },
{ "type": "Feature", "properties": { "X.1": "175", "X": "195", "num": "121", "text": "Tunisia. Bulla Regia Archaeological Project. Corisande Fenwick with Institut National du Patrimoine, Tunisia.", "loc": "Tunisia", "address": "tunisia", "CONTINENT": "Africa", "map_num": 18 }, "geometry": { "type": "Point", "coordinates": [ 9.537499, 33.886917 ] } },
{ "type": "Feature", "properties": { "X.1": "176", "X": "196", "num": "122", "text": "Morocco, Wadi Draa. Wadi Draa Archaeological Project. Corisande Fenwick with Institut National des Sciences de l’Archéologie et du Patrimoine and University of Leicester.", "loc": "Morocco, Wadi Draa", "address": "oued draa, morocco", "CONTINENT": "Africa", "map_num": 19 }, "geometry": { "type": "Point", "coordinates": [ -7.9139713, 29.2171214 ] } },
{ "type": "Feature", "properties": { "X.1": "177", "X": "197", "num": "123", "text": "Morocco, Volubilis. Volubilis Archaeological Project. Corisande Fenwick with Insitut National des Sciences de l’Archéologie et du Patrimoine.", "loc": "Morocco, Volubilis", "address": "el menzeh, meknes, morocco", "CONTINENT": "Africa", "map_num": 20 }, "geometry": { "type": "Point", "coordinates": [ -5.5526793, 34.0708021 ] } },
{ "type": "Feature", "properties": { "X.1": "26", "X": "29", "num": "29", "text": "Turkmenistan. Ancient Merv Project. Tim Williams and Gai Jorayev with Ministry of Culture of Turkmenistan; ‘Ancient Merv’ State Archaeological Park; Centre for Applied Archaeology; UCL Qatar; Heritage Without Borders; CraTerre-ENSAG, Grenoble; Oxford University; US Embassy in Turkmenistan and CyArk.", "loc": "Turkmenistan", "address": "turkmenistan", "CONTINENT": "Asia", "map_num": 21 }, "geometry": { "type": "Point", "coordinates": [ 59.556278, 38.969719 ] } },
{ "type": "Feature", "properties": { "X.1": "27", "X": "31", "num": "31", "text": "Kazakhstan, Pavlodar. Landscape and metal production at the Late Bronze Age site of Semiyarka. Miljana Radivojevic and Dan Lawrence (Durham University) in collaboration with Pavlodar State University (Victor Merz).", "loc": "Kazakhstan, Pavlodar", "address": "pavlodar 140000, kazakhstan", "CONTINENT": "Asia", "map_num": 22 }, "geometry": { "type": "Point", "coordinates": [ 76.9674023, 52.2873032 ] } },
{ "type": "Feature", "properties": { "X.1": "28", "X": "32", "num": "32", "text": "Kazakhstan, Taldysai. The large-scale production of copper in central Kazakhstan. Miljana Radivojevic in collaboration with the Institute of Archaeology, Almaty (Antonina Ermolaeva).", "loc": "Kazakhstan, Taldysai", "address": "taldysai village 100000, kazakhstan", "CONTINENT": "Asia", "map_num": 23 }, "geometry": { "type": "Point", "coordinates": [ 67.0228517, 48.215854 ] } },
{ "type": "Feature", "properties": { "X.1": "31", "X": "35", "num": "35", "text": "India, Sanchi. Sanchi Survey Project. Julia Shaw with Department of Archaeology, Museums and Archives, Madhya Pradesh, Bhopal; and University of Leeds.", "loc": "India, Sanchi", "address": "sanchi, madhya pradesh 464661, india", "CONTINENT": "Asia", "map_num": 24 }, "geometry": { "type": "Point", "coordinates": [ 77.7418238, 23.4873393 ] } },
{ "type": "Feature", "properties": { "X.1": "32", "X": "36", "num": "36", "text": "India. Religion and ‘Nature’ in Ancient India’. Julia Shaw.", "loc": "India", "address": "india", "CONTINENT": "Asia", "map_num": 25 }, "geometry": { "type": "Point", "coordinates": [ 78.96288, 20.593684 ] } },
{ "type": "Feature", "properties": { "X.1": "33", "X": "41", "num": "41", "text": "China, Liaoning Province. Tachiyingzi. Chris Stevens, Dorian Fuller, with Jilin University, and Hebrew University, Jerusalem (Comparative Pathways to Agriculture).", "loc": "China, Liaoning Province", "address": "liaoning, china", "CONTINENT": "Asia", "map_num": 26 }, "geometry": { "type": "Point", "coordinates": [ 122.5290376, 41.9436543 ] } },
{ "type": "Feature", "properties": { "X.1": "34", "X": "42", "num": "42", "text": "China, Yunnan Province. Haimenkou and Baiyangcun. Chris Stevens, Dorian Fuller, Ling Qin, Rita Dal Martello, Eleanor Kingwell-Banham, with Peking University, and the Institute of Cultural Heritage and Archaeology of Yunnan (Early Rice Project\/Comparative Pathways to Agriculture).", "loc": "China, Yunnan Province", "address": "yunnan, china", "CONTINENT": "Asia", "map_num": 27 }, "geometry": { "type": "Point", "coordinates": [ 101.3431058, 24.4752847 ] } },
{ "type": "Feature", "properties": { "X.1": "35", "X": "44", "num": "44", "text": "China. Xi’an, First Emperor’s Mausoleum. The Making of the Terracotta Army. Andrew Bevan, Janice Li, Thilo Rehren, Patrick Quinn with Museum of Emperor Qin Shihuang’s Mausoleum, Xi’an.", "loc": "China", "address": "china", "CONTINENT": "Asia", "map_num": 28 }, "geometry": { "type": "Point", "coordinates": [ 104.195397, 35.86166 ] } },
{ "type": "Feature", "properties": { "X.1": "36", "X": "45", "num": "45", "text": "China, Gansu Province. Early Glass and Pigments from Majiayuan Cemetery, Gansu Province. Thilo Rehren, Yi- Xian Lin and Ian Freestone with Gansu Provincial Institute of Archaeology.", "loc": "China, Gansu Province", "address": "gansu, china", "CONTINENT": "Asia", "map_num": 29 }, "geometry": { "type": "Point", "coordinates": [ 104.2861116, 35.7518326 ] } },
{ "type": "Feature", "properties": { "X.1": "37", "X": "46", "num": "46", "text": "China. Development of Early White Porcelain in China. Shan Huang and Ian Freestone with the Institute of Archaeology, Chinese Academy of Social Sciences, Beijing.", "loc": "China", "address": "china", "CONTINENT": "Asia", "map_num": 30 }, "geometry": { "type": "Point", "coordinates": [ 104.195397, 35.86166 ] } },
{ "type": "Feature", "properties": { "X.1": "38", "X": "47", "num": "47", "text": "China. Multiple projects. Opium war: digital interpretation of archaeological sites and finds for museum-based presentation. Naval Battle Museum: digital interpretation of archaeological sites and finds for museum-based presentation. Chinese exported fans: digital interpretation of archaeological sites and finds for museum-based presentation. Jia Liu (CAA).", "loc": "China", "address": "china", "CONTINENT": "Asia", "map_num": 31 }, "geometry": { "type": "Point", "coordinates": [ 104.195397, 35.86166 ] } },
{ "type": "Feature", "properties": { "X.1": "39", "X": "48", "num": "48", "text": "China. Corrosion products on Han Dynasty bronzes from The Three Gorges. Ian Freestone with The Three Gorges Museum.", "loc": "China", "address": "china", "CONTINENT": "Asia", "map_num": 32 }, "geometry": { "type": "Point", "coordinates": [ 104.195397, 35.86166 ] } },
{ "type": "Feature", "properties": { "X.1": "40", "X": "49", "num": "49", "text": "China. Manufacture of Chinese Lacquer artefacts from the Ming and Qing Dynasties. Julie Chang, Ian Freestone with the Getty Conservation Institute.", "loc": "China", "address": "china", "CONTINENT": "Asia", "map_num": 33 }, "geometry": { "type": "Point", "coordinates": [ 104.195397, 35.86166 ] } },
{ "type": "Feature", "properties": { "X.1": "41", "X": "50", "num": "50", "text": "China. Composition, technology and origins of Qing Dynasty porcelain enamels. Ian Freestone with Cranfield University.", "loc": "China", "address": "china", "CONTINENT": "Asia", "map_num": 34 }, "geometry": { "type": "Point", "coordinates": [ 104.195397, 35.86166 ] } },
{ "type": "Feature", "properties": { "X.1": "42", "X": "51", "num": "51", "text": "China, Shanxi. Survey and Digital documentation of endangered temple wall paintings. CAA and ICCHA, in partnership with Zhejiang University.", "loc": "China, Shanxi", "address": "shanxi, china", "CONTINENT": "Asia", "map_num": 35 }, "geometry": { "type": "Point", "coordinates": [ 111.8568586, 37.2425649 ] } },
{ "type": "Feature", "properties": { "X.1": "43", "X": "54", "num": "54", "text": "Cambodia, Ta Phrom and Angkor Wat. Cristina Castillo, Dorian Fuller, with Miriam Stark, Roland Fletcher and Alison Carter, University of Sydney (Early Rice Project).", "loc": "Cambodia, Ta Phrom and Angkor Wat", "address": "angkor archaeological park, krong siem reap, cambodia", "CONTINENT": "Asia", "map_num": 36 }, "geometry": { "type": "Point", "coordinates": [ 103.8893041, 13.4347941 ] } },
{ "type": "Feature", "properties": { "X.1": "44", "X": "55", "num": "55", "text": "Thailand, Non Ban Jak and Ban Non Wat. Cristina Castillo, Dorian Fuller, with Charles Higham, Ratchanie Thosarat, University of Otago, and Nigel Chang, James Cook University.", "loc": "Thailand, Non Ban Jak and Ban Non Wat", "address": "non ban, ta khu, pak thong chai district, nakhon ratchasima 30150, thailand", "CONTINENT": "Asia", "map_num": 37 }, "geometry": { "type": "Point", "coordinates": [ 101.90022, 14.7087493 ] } },
{ "type": "Feature", "properties": { "X.1": "45", "X": "56", "num": "56", "text": "Burma. Sri Ksetra, Dorian Fuller, Janice Stargardt, Cambridge University (Early Rice Project).", "loc": "Burma", "address": "myanmar (burma)", "CONTINENT": "Asia", "map_num": 38 }, "geometry": { "type": "Point", "coordinates": [ 95.955974, 21.916221 ] } },
{ "type": "Feature", "properties": { "X.1": "46", "X": "58", "num": "58", "text": "Kingdom of Bhutan. National Inventory. Tim Williams and Andrew Bevan with Department of Culture, Bhutan; National Commission of UNESCO, Bhutan; Cultural Heritage Information Consultants.", "loc": "Kingdom of Bhutan", "address": "bhutan", "CONTINENT": "Asia", "map_num": 39 }, "geometry": { "type": "Point", "coordinates": [ 90.433601, 27.514162 ] } },
{ "type": "Feature", "properties": { "X.1": "129", "X": "144", "num": "70", "text": "Russia, Podsinyushka, near Barnaul. Early Bronze Age site in the Altai Mountains. Miljana Radivojevic with Sergey Grushin (Altai State University).", "loc": "Russia, Podsinyushka, near Barnaul", "address": "barnaul, altai krai, russia", "CONTINENT": "Asia", "map_num": 40 }, "geometry": { "type": "Point", "coordinates": [ 83.7835737, 53.3497499 ] } },
{ "type": "Feature", "properties": { "X.1": "138", "X": "155", "num": "81", "text": "Turkey, Çatalhöyük. The Social Geography of the Çatalhöyük Settlement. Katherine (Karen) Wright with UCL; Universities of Stanford, UC Merced, Southampton, Istanbul, Selcuk, Thrace, Adam Mickiewicz, New York State (SUNY) and Buffalo; and Free University Berlin.", "loc": "Turkey, Çatalhöyük", "address": "küçükköy, çatalhöyük yolu, 42500 çumra\/konya, turkey", "CONTINENT": "Asia", "map_num": 41 }, "geometry": { "type": "Point", "coordinates": [ 32.8256599, 37.6664372 ] } },
{ "type": "Feature", "properties": { "X.1": "139", "X": "157", "num": "83", "text": "Turkey. Technology of Seljuq Ceramics and Glass from Kubad Abad. Ian Freestone with Universities of Cukurova and Ankara.", "loc": "Turkey", "address": "turkey", "CONTINENT": "Asia", "map_num": 42 }, "geometry": { "type": "Point", "coordinates": [ 35.243322, 38.963745 ] } },
{ "type": "Feature", "properties": { "X.1": "140", "X": "158", "num": "84", "text": "Turkey, Boncuklu Höyük. Boncuklu Höyük Project. Louise Martin with Universities of Liverpool, Queensland, Reading, and Harvard.", "loc": "Turkey, Boncuklu Höyük", "address": "hayıroğlu, 42290 karatay\/konya, turkey", "CONTINENT": "Asia", "map_num": 43 }, "geometry": { "type": "Point", "coordinates": [ 32.8648048, 37.7517254 ] } },
{ "type": "Feature", "properties": { "X.1": "142", "X": "160", "num": "86", "text": "Israel\/Palestine. Understanding Heritage Wellbeing: Traditional Healers and Eye Care. Beverley Butler with Eye Hospital, Order of St John; Sheikh Jarrah.", "loc": "Israel\/Palestine", "address": "israel", "CONTINENT": "Asia", "map_num": 44 }, "geometry": { "type": "Point", "coordinates": [ 34.851612, 31.046051 ] } },
{ "type": "Feature", "properties": { "X.1": "143", "X": "161", "num": "87", "text": "Israel, Jordan Valley. Tel Bet Yerah. Early Bronze Age and Early Islamic. David Wengrow with Raphael Greenberg.", "loc": "Israel, Jordan Valley", "address": "jordan valley, jordan", "CONTINENT": "Asia", "map_num": 45 }, "geometry": { "type": "Point", "coordinates": [ 35.5699418, 32.3171675 ] } },
{ "type": "Feature", "properties": { "X.1": "144", "X": "162", "num": "88", "text": "Israel. Glass from the Sea. Ian Freestone with Israel Antiquities Authority.", "loc": "Israel", "address": "israel", "CONTINENT": "Asia", "map_num": 46 }, "geometry": { "type": "Point", "coordinates": [ 34.851612, 31.046051 ] } },
{ "type": "Feature", "properties": { "X.1": "145", "X": "163", "num": "89", "text": "Palestine. Collections in Exile, Persons in Exile: Rethinking the Petrie Palestinian Collection (UCL) and the Tawfik Canaan Collection (Birzeit University). Beverley Butler.", "loc": "Palestine", "address": "palestine", "CONTINENT": "Asia", "map_num": 47 }, "geometry": { "type": "Point", "coordinates": [ 35.233154, 31.952162 ] } },
{ "type": "Feature", "properties": { "X.1": "146", "X": "164", "num": "90", "text": "Lebanon. Hellenistic and early Roman glass from Beirut. Ian Freestone with KU Leuven.", "loc": "Lebanon", "address": "lebanon", "CONTINENT": "Asia", "map_num": 48 }, "geometry": { "type": "Point", "coordinates": [ 35.862285, 33.854721 ] } },
{ "type": "Feature", "properties": { "X.1": "147", "X": "165", "num": "91", "text": "Lebanon, Qadisha. Qadisha Valley Project. Epipalaeolithic- Neolithic Excavations at Moghr el-Ahwal. Andrew Garrard, Kevan Edinborough, Yvonne Edwards, Richard Macphail and Katherine (Karen) Wright with Lebanese University Beirut; Lampeter.", "loc": "Lebanon, Qadisha", "address": "kadisha valley, lebanon", "CONTINENT": "Asia", "map_num": 49 }, "geometry": { "type": "Point", "coordinates": [ 35.9527842, 34.2845425 ] } },
{ "type": "Feature", "properties": { "X.1": "148", "X": "166", "num": "92", "text": "Lebanon. Beirut Souks. Dominic Perring (CAA\/ASE) and Tim Williams with American University of Beirut.", "loc": "Lebanon", "address": "lebanon", "CONTINENT": "Asia", "map_num": 50 }, "geometry": { "type": "Point", "coordinates": [ 35.862285, 33.854721 ] } },
{ "type": "Feature", "properties": { "X.1": "149", "X": "167", "num": "93", "text": "Jordan. Glass production in Roman and Byzantine Jerash. Ian Freestone with UrbNet, Aarhus University.", "loc": "Jordan", "address": "", "CONTINENT": "Asia", "map_num": 51 }, "geometry": { "type": "Point", "coordinates": [ 36.51, 31.24 ] } },
{ "type": "Feature", "properties": { "X.1": "150", "X": "168", "num": "94", "text": "Jordan. Glass production in Khirbet edh-Dharih. Ian Freestone with Yarmouk University.", "loc": "Jordan", "address": "", "CONTINENT": "Asia", "map_num": 52 }, "geometry": { "type": "Point", "coordinates": [ 36.51, 31.24 ] } },
{ "type": "Feature", "properties": { "X.1": "151", "X": "169", "num": "95", "text": "Jordan. Kharaneh IV. Epipalaeolithic Excavations. Louise Martin with University of California (Berkeley).", "loc": "Jordan", "address": "", "CONTINENT": "Asia", "map_num": 53 }, "geometry": { "type": "Point", "coordinates": [ 36.51, 31.24 ] } },
{ "type": "Feature", "properties": { "X.1": "152", "X": "170", "num": "96", "text": "Jordan. Azraq Project. Epipalaeolithic- Neolithic Excavations. Andrew Garrard, Sue Colledge, Louise Martin and Katherine (Karen) Wright with Universities of Liverpool, Belfast, Davis California; and CNRS, France.", "loc": "Jordan", "address": "", "CONTINENT": "Asia", "map_num": 54 }, "geometry": { "type": "Point", "coordinates": [ 36.51, 31.24 ] } },
{ "type": "Feature", "properties": { "X.1": "153", "X": "171", "num": "97", "text": "Jordan. Ain Ghazal. Kathryn Tubb with British Museum.", "loc": "Jordan", "address": "", "CONTINENT": "Asia", "map_num": 55 }, "geometry": { "type": "Point", "coordinates": [ 36.51, 31.24 ] } },
{ "type": "Feature", "properties": { "X.1": "154", "X": "172", "num": "98", "text": "Jordan. Talbiyeh and other Palestinian Refugee Camps in Jordan. Beverley Butler with Petra University, Amman.", "loc": "Jordan", "address": "", "CONTINENT": "Asia", "map_num": 56 }, "geometry": { "type": "Point", "coordinates": [ 36.51, 31.24 ] } },
{ "type": "Feature", "properties": { "X.1": "159", "X": "178", "num": "104", "text": "Iraq, Rania Plain. Girdi Bazar Project. Mark Altaweel with University Munich.", "loc": "Iraq, Rania Plain", "address": "ranya, iraq", "CONTINENT": "Asia", "map_num": 57 }, "geometry": { "type": "Point", "coordinates": [ 44.8855495, 36.2390965 ] } },
{ "type": "Feature", "properties": { "X.1": "160", "X": "179", "num": "105", "text": "Iraq, Nimrud. The Ivories from Nimrud Volume VIII. Stuart Laidlaw, Georgina Herrmann, Helena Coffey.", "loc": "Iraq, Nimrud", "address": "", "CONTINENT": "Asia", "map_num": 58 }, "geometry": { "type": "Point", "coordinates": [ 43.328889, 36.098056 ] } },
{ "type": "Feature", "properties": { "X.1": "161", "X": "180", "num": "106", "text": "Iraqi Kurdistan. Later Prehistory of the Shahrizor Plain. David Wengrow with Directorate of Antiquities, Suleymaniyah Province, and UCL Qatar.", "loc": "Iraqi Kurdistan", "address": "kurdistan region, iraq", "CONTINENT": "Asia", "map_num": 59 }, "geometry": { "type": "Point", "coordinates": [ 44.3871953, 36.4103395 ] } },
{ "type": "Feature", "properties": { "X.1": "162", "X": "182", "num": "108", "text": "Iran. From Islamic manuscripts to the laboratory. Rahil Alipour and Thilo Rehren.", "loc": "Iran", "address": "iran", "CONTINENT": "Asia", "map_num": 60 }, "geometry": { "type": "Point", "coordinates": [ 53.688046, 32.427908 ] } },
{ "type": "Feature", "properties": { "X.1": "163", "X": "183", "num": "109", "text": "Saudi Arabia. Jubbah Oasis, Nefud Desert. Palaeodeserts Project. Maria Guagnin (Freie Universitat Berlin), Michael Petraglia (Max Plank Institute) and team, with Louise Martin.", "loc": "Saudi Arabia", "address": "saudi arabia", "CONTINENT": "Asia", "map_num": 61 }, "geometry": { "type": "Point", "coordinates": [ 45.079162, 23.885942 ] } },
{ "type": "Feature", "properties": { "X.1": "164", "X": "184", "num": "110", "text": "Oman. Dhofar and multiple locations in southern Oman. ASOM project (Ancient Socioecological Systems in Oman). Joy McCorriston, Mark Mortiz, Ian Hamilton (Ohio State University) and team, with Louise Martin.", "loc": "Oman", "address": "oman", "CONTINENT": "Asia", "map_num": 62 }, "geometry": { "type": "Point", "coordinates": [ 55.975413, 21.4735329 ] } },
{ "type": "Feature", "properties": { "X.1": "165", "X": "185", "num": "111", "text": "United Arab Emirates. Early Islamic Glass from Sir Bani Yas. Ian Freestone and Matt Phelps with St John Simpson, the British Museum.", "loc": "United Arab Emirates", "address": "united arab emirates", "CONTINENT": "Asia", "map_num": 63 }, "geometry": { "type": "Point", "coordinates": [ 53.847818, 23.424076 ] } },
{ "type": "Feature", "properties": { "X.1": "11", "X": "12", "num": "12", "text": "Belize, Lamanai. Conservation, collections management, and access to on-site collections. Elizabeth Graham, David Pendergast and Royal Ontario Museum.", "loc": "Belize, Lamanai", "address": "belize", "CONTINENT": "North America", "map_num": 134 }, "geometry": { "type": "Point", "coordinates": [ -88.6522329, 17.7642074 ] } },
{ "type": "Feature", "properties": { "X.1": "12", "X": "13", "num": "13", "text": "Belize, Ambergris Caye. Continuing artefact analysis, Marco Gonzalez Project. Elizabeth Graham.", "loc": "Belize, Ambergris Caye", "address": "ambergris caye, belize", "CONTINENT": "North America", "map_num": 135 }, "geometry": { "type": "Point", "coordinates": [ -87.9432837, 18.001592 ] } },
{ "type": "Feature", "properties": { "X.1": "13", "X": "14", "num": "14", "text": "Puerto Rico, Utuado. Bateyes de Viví. José R. Oliver.", "loc": "Puerto Rico, Utuado", "address": "utuado, 00641, puerto rico", "CONTINENT": "North America", "map_num": 136 }, "geometry": { "type": "Point", "coordinates": [ -66.7004519, 18.2655095 ] } },
{ "type": "Feature", "properties": { "X.1": "14", "X": "15", "num": "15", "text": "USA, Louisiana. Cane River African Diaspora Archaeology Project: the Pierre Metoyer Plantation. Kevin MacDonald with US National Park Service.", "loc": "USA, Louisiana", "address": "louisiana, usa", "CONTINENT": "North America", "map_num": 137 }, "geometry": { "type": "Point", "coordinates": [ -91.9623327, 30.9842977 ] } },
{ "type": "Feature", "properties": { "X.1": "15", "X": "16", "num": "16", "text": "USA, Anza-Borrego Desert State Park, California. Ceramic Production and Distribution at Late Prehistoric Hunter-Gatherer Seasonal Occupation site CA-SDI-813. Patrick Quinn with San Diego Archaeological Center, California.", "loc": "USA, Anza-Borrego Desert State Park, California", "address": "anza-borrego desert state park, 200 palm canyon dr, borrego springs, ca 92004, usa", "CONTINENT": "North America", "map_num": 138 }, "geometry": { "type": "Point", "coordinates": [ -116.3013266, 33.100492 ] } },
{ "type": "Feature", "properties": { "X.1": "16", "X": "17", "num": "17", "text": "Canada, Ontario. Complex Hunter-Gatherers of the Trent Valley. Excavation of a set of Archaic through Middle Woodland sites. Sue Colledge with Department of Anthropology, Trent University, Ontario.", "loc": "Canada, Ontario", "address": "ontario, canada", "CONTINENT": "North America", "map_num": 139 }, "geometry": { "type": "Point", "coordinates": [ -85.323214, 51.253775 ] } },
{ "type": "Feature", "properties": { "X.1": "49", "X": "61", "num": "61", "text": "Easter Island, Rapa Nui. Landscapes of Construction Project. Sue Hamilton with Universities of Bournemouth, Manchester, Highlands and Islands, Chile Santiago, Hawaii Pacific; Rapa Nui National Parks Authority; Museo Antropológico Padre Sebastián Englert.", "loc": "Easter Island, Rapa Nui", "address": "easter island, valparaíso, chile", "CONTINENT": "Oceania", "map_num": 140 }, "geometry": { "type": "Point", "coordinates": [ -109.3496865, -27.112723 ] } },
{ "type": "Feature", "properties": { "X.1": "50", "X": "62", "num": "62", "text": "New Zealand, Auckland. Interr-ogating Archaeological Data for Climatic Information. Martin Bridge with Auckland University Dendrochronology Laboratory.", "loc": "New Zealand, Auckland", "address": "auckland, new zealand", "CONTINENT": "Oceania", "map_num": 141 }, "geometry": { "type": "Point", "coordinates": [ 174.762488600000012, -36.8483048 ] } },
{ "type": "Feature", "properties": { "X.1": "1", "X": "2", "num": "2", "text": "Peru, Cuzco. Ceramic production and monumental stonework during the emergence and expansion of the Inca State. Bill Sillar with University of North Carolina, Charlotte; Ministerio de Cultura, Cuzco.", "loc": "Peru, Cuzco", "address": "cusco, peru", "CONTINENT": "South America", "map_num": 142 }, "geometry": { "type": "Point", "coordinates": [ -71.9674626, -13.53195 ] } },
{ "type": "Feature", "properties": { "X.1": "2", "X": "3", "num": "3", "text": "Bolivarian Republic of Venezuela, Puerto Ayacucho. Cotúa Island-Orinoco Reflexive Archaeology Project. José R. Oliver (PI), Manuel Arroyo-Kalin with Instituto Venezolano de Investigaciones Científicas – Center of Anthropology.", "loc": "Bolivarian Republic of Venezuela, Puerto Ayacucho", "address": "puerto ayacucho 7101, amazonas, venezuela", "CONTINENT": "South America", "map_num": 143 }, "geometry": { "type": "Point", "coordinates": [ -67.5827744, 5.6614718 ] } },
{ "type": "Feature", "properties": { "X.1": "3", "X": "4", "num": "4", "text": "Peru and Ecuador. Archaeological Survey of the Napo River Basin. British Academy project led by M. Arroyo-Kalin, in partnership with DDC-Loreto.", "loc": "Peru and Ecuador", "address": "ecuador", "CONTINENT": "South America", "map_num": 144 }, "geometry": { "type": "Point", "coordinates": [ -78.183406, -1.831239 ] } },
{ "type": "Feature", "properties": { "X.1": "4", "X": "5", "num": "5", "text": "Brazil, Caxiuanã. Geoarchaeology of Caxiuanã. M. Arroyo-Kalin, in partnership with MPEG.", "loc": "Brazil, Caxiuanã", "address": "caxiuanã national forest, melgaço - pa, 68490-000, brazil", "CONTINENT": "South America", "map_num": 145 }, "geometry": { "type": "Point", "coordinates": [ -51.4347329, -1.7938249 ] } },
{ "type": "Feature", "properties": { "X.1": "5", "X": "6", "num": "6", "text": "Brazil, Alto Solimões, Amazon. Barkcloth from the Brazilian Amazon. Renata Peters with Museu de Arqueologia e Etnologia, Universidade de Sao Paulo.", "loc": "Brazil, Alto Solimões, Amazon", "address": "alto solimões, state of amazonas, brazil", "CONTINENT": "South America", "map_num": 146 }, "geometry": { "type": "Point", "coordinates": [ -69.6691186, -5.3751741 ] } },
{ "type": "Feature", "properties": { "X.1": "7", "X": "8", "num": "8", "text": "Brazil. Ancestral indigenous landscapes in the Upper Negro River. British Academy project led by M. Arroyo-Kalin (IoA), in partnership with UFSCar, MUSA, ISA and MPEG.", "loc": "Brazil", "address": "brazil", "CONTINENT": "South America", "map_num": 147 }, "geometry": { "type": "Point", "coordinates": [ -51.92528, -14.235004 ] } },
{ "type": "Feature", "properties": { "X.1": "8", "X": "9", "num": "9", "text": "Chile, Tierra del Fuego. Geoarchaeology in Tierra del Fuego. M. Arroyo-Kalin (IoA), in partnership with UMAG.", "loc": "Chile, Tierra del Fuego", "address": "tierra del fuego province, magallanes and chilean antarctica, chile", "CONTINENT": "South America", "map_num": 148 }, "geometry": { "type": "Point", "coordinates": [ -69.2972139, -53.8671117 ] } },
{ "type": "Feature", "properties": { "X.1": "9", "X": "10", "num": "10", "text": "Colombia, Middle Caquetá River. Geoarchaeology of the Middle Caquetá River. UCL Research Catalyst project led by M. Arroyo-Kalin (IoA), in partnership with UNAL.", "loc": "Colombia, Middle Caquetá River", "address": "japurá river, state of amazonas, brazil", "CONTINENT": "South America", "map_num": 149 }, "geometry": { "type": "Point", "coordinates": [ -67.0803821, -1.9116208 ] } },
{ "type": "Feature", "properties": { "X.1": "10", "X": "11", "num": "11", "text": "Colombia, Municipality of Puerto Carreño. Archaeological survey in the Colombian Orinoco, northeast Vichada. José R. Oliver (PI) with José Luis Socarrás (Co-PI) and Manuel Arroyo-Kalin with Universidad de Externado and Instituto Colombiano de Antropología e Historia (ICAHN).", "loc": "Colombia, Municipality of Puerto Carreño", "address": "puerto carreño, vichada, colombia", "CONTINENT": "South America", "map_num": 150 }, "geometry": { "type": "Point", "coordinates": [ -67.4825696, 6.1899117 ] } }
]
}
